url,id,type,subtype,country,region,locality_name,locality_code,locality_latitude,locality_longitude,bedroom_count,net_habitable_surface,land_surface,room_count,transaction_type,sale_annuity,price,old_price,furnished,epc,annex_count,building_condition,construction_year,facade_count,floor_count,street_facade_width,pool,kitchen_area,kitchen_type,kitchen_oven,kitchen_microwave,kitchen_dishwasher,kitchen_washing_machine,kitchen_fridge,kitchen_freezer,kitchen_steam_oven,living_room,garden,garden_area,terrace,terrace_area,fireplace,living_room_area,has_living_room,kitchen,building
https://www.immoweb.be/en/classified/house/for-sale/mechelen/2800/20296298,20296298.0,HOUSE,HOUSE,Belgium,Flanders,Mechelen,2800,51.0332659,4.4917284,4.0,153.0,None,,FOR_SALE,,320000.0,,,D,,JUST_RENOVATED,1930.0,2.0,,5.0,,19.0,INSTALLED,,,,,,,,None,True,37.0,True,,False,,,,
https://www.immoweb.be/en/classified/house/for-sale/wavre/1300/20295477,20295477.0,HOUSE,HOUSE,Belgium,Wallonie,WAVRE,1300,50.7176301,4.603354299999999,2.0,110.0,None,,FOR_SALE,,200000.0,,,E,,TO_RENOVATE,1915.0,3.0,2.0,,,9.0,,,,,,,,,,,,True,8.0,False,24.0,True,,
https://www.immoweb.be/en/classified/house/for-sale/zemst/1980/20288668,20288668.0,HOUSE,HOUSE,Belgium,Flanders,ZEMST,1980,50.9702065,4.451498,3.0,204.0,None,,FOR_SALE,,576000.0,,,B,,GOOD,2005.0,3.0,,7.0,,12.0,INSTALLED,,,,,,,,,True,120.0,True,20.0,False,18.0,True,,
https://www.immoweb.be/en/classified/house/for-sale/zottegem/9620/20293542,20293542.0,HOUSE,HOUSE,Belgium,Flanders,Zottegem,9620,50.86828140000001,3.7897975,4.0,236.0,None,19.0,FOR_SALE,,469000.0,,False,B,,GOOD,1938.0,3.0,4.0,10.0,,,,,,,,,,,,,,True,,False,31.0,True,None,
https://www.immoweb.be/en/classified/house/for-sale/nivelles/1400/20295773,20295773.0,HOUSE,HOUSE,Belgium,Wallonie,Nivelles,1400,50.598617,4.3082418,3.0,165.0,None,16.0,FOR_SALE,,335000.0,,False,B,,GOOD,2007.0,2.0,2.0,5.8,False,19.0,INSTALLED,,,,,,,,,,,True,17.0,False,23.0,True,,
https://www.immoweb.be/en/classified/house/for-sale/oostakker/9041/20296943,20296943.0,HOUSE,HOUSE,Belgium,Flanders,Oostakker,9041,51.0729055,3.8016655,3.0,210.0,None,13.0,FOR_SALE,,698000.0,,,A,,GOOD,2021.0,,,,,15.0,INSTALLED,,,,,,,,,True,500.0,True,40.0,False,42.0,True,,
https://www.immoweb.be/en/classified/house/for-sale/destelbergen/9070/20296941,20296941.0,HOUSE,HOUSE,Belgium,Flanders,Destelbergen,9070,51.0729055,3.8016655,3.0,210.0,None,13.0,FOR_SALE,,698000.0,,,A,,GOOD,2021.0,,,,,15.0,INSTALLED,,,,,,,,,True,500.0,True,40.0,False,42.0,True,,
https://www.immoweb.be/en/classified/house/for-sale/grez-doiceau/1390/20295340,20295340.0,HOUSE,HOUSE,Belgium,Wallonie,Grez-Doiceau,1390,50.7185584,4.7221676,3.0,157.0,None,,FOR_SALE,,449000.0,,,E,,JUST_RENOVATED,,4.0,2.0,,,8.0,INSTALLED,,,,,,,,,,,True,,False,30.0,True,,
https://www.immoweb.be/en/classified/house/for-sale/wommelgem/2160/20297410,20297410.0,HOUSE,HOUSE,Belgium,Flanders,WOMMELGEM,2160,51.1977319,4.529553,4.0,245.0,None,,FOR_SALE,,764000.0,,,A,,AS_NEW,2019.0,3.0,1.0,8.0,,,HYPER_EQUIPPED,,,,,,,,,True,270.0,True,29.0,False,44.0,True,,
https://www.immoweb.be/en/classified/house/for-sale/tessenderlo/3980/20297408,20297408.0,HOUSE,HOUSE,Belgium,Flanders,TESSENDERLO,3980,51.0721994,5.135269099999999,3.0,170.0,None,,FOR_SALE,,249000.0,,,F,,,1958.0,,,828.0,,,INSTALLED,,,,,,,,None,,,,,False,,,,
https://www.immoweb.be/en/classified/house/for-sale/poppel/2382/20269929,20269929.0,HOUSE,HOUSE,Belgium,Flanders,POPPEL,2382,51.44960520000001,5.029323,5.0,400.0,None,,FOR_SALE,,649000.0,,,B,,GOOD,2002.0,,,,,,HYPER_EQUIPPED,,,,,,,,,,,,,False,50.0,True,,
https://www.immoweb.be/en/classified/house/for-sale/hoboken/2660/20296644,20296644.0,HOUSE,HOUSE,Belgium,Flanders,HOBOKEN,2660,51.1832153,4.3584859,3.0,195.0,None,,FOR_SALE,,328000.0,,,D,,GOOD,1981.0,2.0,,,,,INSTALLED,,,,,,,,None,,,True,,False,,,,
https://www.immoweb.be/en/classified/house/for-sale/musson/6750/20297405,20297405.0,HOUSE,HOUSE,Belgium,Wallonie,MUSSON,6750,49.5695007,5.6579358,3.0,182.0,None,,FOR_SALE,,295000.0,,,E,,GOOD,,2.0,,11.0,,,INSTALLED,,,,,,,,None,,,,,False,,,,
https://www.immoweb.be/en/classified/house/for-sale/hamme/9220/20297404,20297404.0,HOUSE,HOUSE,Belgium,Flanders,Hamme,9220,51.0710379,4.149930299999999,2.0,132.0,None,,FOR_SALE,,269000.0,,,E,,GOOD,1899.0,3.0,,,,,INSTALLED,,,,,,,,None,,,True,,False,,,,
https://www.immoweb.be/en/classified/house/for-sale/aalst/9300/20297402,20297402.0,HOUSE,HOUSE,Belgium,Flanders,AALST,9300,50.9436698,4.0471493,3.0,120.0,None,,FOR_SALE,,250000.0,,,C,,GOOD,,2.0,3.0,,,,INSTALLED,,,,,,,,None,,,,,False,,,,
https://www.immoweb.be/en/classified/house/for-sale/de%20klinge/9170/20297288,20297288.0,HOUSE,HOUSE,Belgium,Flanders,DE KLINGE,9170,51.2664353,4.120463099999999,5.0,280.0,None,,FOR_SALE,,595000.0,,,C,,GOOD,1984.0,4.0,,,,,INSTALLED,,,,,,,,None,,,True,35.0,False,,,,
https://www.immoweb.be/en/classified/house/for-sale/belsele/9111/20297219,20297219.0,HOUSE,HOUSE,Belgium,Flanders,BELSELE,9111,51.1744885,4.081122300000001,5.0,360.0,None,,FOR_SALE,,675000.0,,,B,,JUST_RENOVATED,,3.0,,,,,HYPER_EQUIPPED,,,,,,,,,True,1900.0,True,50.0,False,78.0,True,,
https://www.immoweb.be/en/classified/house/for-sale/schoten/2900/20297393,20297393.0,HOUSE,HOUSE,Belgium,Flanders,SCHOTEN,2900,51.2464302,4.462102199999999,3.0,128.0,None,,FOR_SALE,,385000.0,,,B,,AS_NEW,,2.0,,,,,INSTALLED,,,,,,,,None,,,,,False,,,,
https://www.immoweb.be/en/classified/house/for-sale/gentbrugge/9050/20297384,20297384.0,HOUSE,HOUSE,Belgium,Flanders,Gentbrugge,9050,51.0284723,3.764137499999999,3.0,144.0,None,,FOR_SALE,,469000.0,,False,None,,AS_NEW,2024.0,2.0,2.0,,False,8.0,HYPER_EQUIPPED,,,,,,,,,True,117.0,True,,False,41.0,True,,
https://www.immoweb.be/en/classified/house/for-sale/gent%20sint-denijs-westrem/9051/20297386,20297386.0,HOUSE,HOUSE,Belgium,Flanders,Gent Sint-Denijs-Westrem,9051,51.0196273,3.6694259,3.0,,None,,FOR_SALE,,555000.0,,False,,,,2024.0,2.0,2.0,,False,16.0,HYPER_EQUIPPED,,,,,,,,,True,59.0,True,,False,25.0,True,,
https://www.immoweb.be/en/classified/house/for-sale/gentbrugge/9050/20297371,20297371.0,HOUSE,HOUSE,Belgium,Flanders,Gentbrugge,9050,51.0284723,3.764137499999999,3.0,144.0,None,,FOR_SALE,,547500.0,,False,None,,AS_NEW,2024.0,3.0,2.0,,False,8.0,HYPER_EQUIPPED,,,,,,,,,True,300.0,True,,False,38.0,True,,
https://www.immoweb.be/en/classified/house/for-sale/gentbrugge/9050/20297363,20297363.0,HOUSE,HOUSE,Belgium,Flanders,Gentbrugge,9050,51.0284723,3.764137499999999,3.0,146.0,None,,FOR_SALE,,467000.0,,False,None,,AS_NEW,2024.0,2.0,2.0,,False,8.0,HYPER_EQUIPPED,,,,,,,,,True,100.0,True,,False,41.0,True,,
https://www.immoweb.be/en/classified/house/for-sale/ninove/9400/20297360,20297360.0,HOUSE,HOUSE,Belgium,Flanders,Ninove,9400,50.7820716,4.0066184,5.0,291.0,None,1.0,FOR_SALE,,549000.0,,,B,,AS_NEW,1990.0,4.0,2.0,12.0,,23.0,,,,,,,,,,True,734.0,,,False,55.0,True,,
https://www.immoweb.be/en/classified/house/for-sale/merelbeke/9820/20293544,20293544.0,HOUSE,HOUSE,Belgium,Flanders,Merelbeke,9820,50.961299,3.701672,4.0,200.0,None,17.0,FOR_SALE,,365000.0,,False,F,,TO_RENOVATE,1963.0,4.0,,10.0,,14.0,,,,,,,,,,,,True,,False,18.0,True,,
https://www.immoweb.be/en/classified/house/for-sale/berendrecht/2040/20296919,20296919.0,HOUSE,HOUSE,Belgium,Flanders,Berendrecht,2040,51.34838569999999,4.325404499999999,3.0,237.0,None,15.0,FOR_SALE,,395000.0,,,C,,GOOD,1899.0,,,,,43.0,INSTALLED,,,,,,,,,True,384.0,,,False,41.0,True,,
https://www.immoweb.be/en/classified/house/for-sale/sint-amandsberg/9040/20296958,20296958.0,HOUSE,HOUSE,Belgium,Flanders,Sint-Amandsberg,9040,51.0604378,3.755017799999999,0.0,234.0,None,10.0,FOR_SALE,,420000.0,,False,D,,GOOD,1936.0,,,,,,,,,,,,,,None,True,130.0,True,8.0,False,,,None,
https://www.immoweb.be/en/classified/house/for-sale/vilvoorde/1800/20295067,20295067.0,HOUSE,HOUSE,Belgium,Flanders,Vilvoorde,1800,50.9327675,4.447890399999999,4.0,213.0,None,,FOR_SALE,,649000.0,,False,B,,AS_NEW,2010.0,4.0,1.0,,False,,HYPER_EQUIPPED,,,,,,,,,True,150.0,,,False,60.0,True,,
https://www.immoweb.be/en/classified/house/for-sale/seraing/4100/20292095,20292095.0,HOUSE,HOUSE,Belgium,Wallonie,Seraing,4100,50.5885675,5.5135203,2.0,57.0,None,,FOR_SALE,,120000.0,,False,G,,JUST_RENOVATED,1950.0,3.0,1.0,4.0,False,,NOT_INSTALLED,,,,,,,,,True,110.0,True,7.0,False,9.0,True,,
https://www.immoweb.be/en/classified/house/for-sale/waregem/8790/20296808,20296808.0,HOUSE,HOUSE,Belgium,Flanders,WAREGEM,8790,50.8909593,3.4162244,2.0,130.0,None,,FOR_SALE,,299000.0,,,D,,,1955.0,3.0,,6.0,,15.0,INSTALLED,,,,,,,,,True,47.0,True,53.0,False,27.0,True,,
https://www.immoweb.be/en/classified/house/for-sale/arlon/6700/20283722,20283722.0,HOUSE,HOUSE,Belgium,Wallonie,Arlon,6700,49.6407996,5.7758163,4.0,150.0,None,,FOR_SALE,,395000.0,,,D,,TO_BE_DONE_UP,1967.0,4.0,2.0,,,8.0,SEMI_EQUIPPED,,,,,,,,,True,1200.0,True,20.0,False,30.0,True,,
https://www.immoweb.be/en/classified/house/for-sale/aubange-athus/6791/20283727,20283727.0,HOUSE,HOUSE,Belgium,Wallonie,Aubange Athus,6791,49.5606985,5.8344147,3.0,160.0,None,,FOR_SALE,,430000.0,,,D,,GOOD,1952.0,4.0,2.0,,,16.0,,,,,,,,,,True,750.0,True,60.0,False,22.0,True,,
https://www.immoweb.be/en/classified/house/for-sale/oosterzele/9860/20292127,20292127.0,HOUSE,HOUSE,Belgium,Flanders,Oosterzele,9860,50.9223051,3.7899441,3.0,147.0,None,,FOR_SALE,,455000.0,,False,A,,JUST_RENOVATED,1899.0,3.0,3.0,5.6,False,13.0,HYPER_EQUIPPED,,,,,,,,,True,77.0,True,16.0,False,45.0,True,,
https://www.immoweb.be/en/classified/house/for-sale/erpe-mere/9420/20296351,20296351.0,HOUSE,HOUSE,Belgium,Flanders,Erpe-Mere,9420,50.8966202,3.9424476,2.0,97.0,None,,FOR_SALE,,145000.0,,False,F,,TO_RENOVATE,1919.0,3.0,3.0,5.46,False,21.0,NOT_INSTALLED,,,,,,,,,True,189.0,,,False,15.0,True,,
https://www.immoweb.be/en/classified/house/for-sale/vilvoorde/1800/20295539,20295539.0,HOUSE,HOUSE,Belgium,Flanders,Vilvoorde,1800,50.9330377,4.424601900000001,3.0,140.0,None,,FOR_SALE,,299000.0,,False,E,,TO_BE_DONE_UP,1940.0,2.0,2.0,5.2,False,12.0,SEMI_EQUIPPED,,,,,,,,,True,35.0,,,False,27.0,True,,
https://www.immoweb.be/en/classified/house/for-sale/lebbeke/9280/20296979,20296979.0,HOUSE,HOUSE,Belgium,Flanders,Lebbeke,9280,50.9863299,4.1506222,2.0,150.0,None,15.0,FOR_SALE,,365000.0,,,A,,GOOD,1960.0,,,4.0,,8.0,,,,,,,,,None,,,True,20.0,False,,,,
https://www.immoweb.be/en/classified/house/for-sale/mechelen/2800/20295310,20295310.0,HOUSE,HOUSE,Belgium,Flanders,MECHELEN,2800,51.0222213,4.4799787,5.0,179.0,None,,FOR_SALE,,425000.0,,,B,,GOOD,1976.0,,,,,12.0,INSTALLED,,,,,,,,,,,True,33.0,True,35.0,True,,
https://www.immoweb.be/en/classified/house/for-sale/willebroek/2830/20295471,20295471.0,HOUSE,HOUSE,Belgium,Flanders,WILLEBROEK,2830,51.05132769999999,4.377813,4.0,195.0,None,,FOR_SALE,,635000.0,,,B,,GOOD,2007.0,3.0,2.0,,,21.0,SEMI_EQUIPPED,,,,,,,,,,,True,38.0,False,60.0,True,,
https://www.immoweb.be/en/classified/house/for-sale/seraing/4100/20289627,20289627.0,HOUSE,HOUSE,Belgium,Wallonie,Seraing,4100,50.5928878,5.4910842,1.0,70.0,None,,FOR_SALE,,79000.0,,,G,,GOOD,1948.0,2.0,1.0,6.0,False,14.0,SEMI_EQUIPPED,,,,,,,,,True,55.0,,,False,12.0,True,,
https://www.immoweb.be/en/classified/house/for-sale/bassenge/4690/20288142,20288142.0,HOUSE,HOUSE,Belgium,Wallonie,Bassenge,4690,50.7587191,5.6099834,3.0,148.0,None,,FOR_SALE,,299000.0,,False,C,,AS_NEW,1874.0,4.0,2.0,10.0,False,12.0,HYPER_EQUIPPED,,,,,,,,,True,280.0,True,50.0,False,32.0,True,,
https://www.immoweb.be/en/classified/house/for-sale/forest/1190/20290512,20290512.0,HOUSE,HOUSE,Belgium,Brussels,Forest,1190,50.8211091,4.3447263,4.0,210.0,None,15.0,FOR_SALE,,795000.0,,False,E,,GOOD,1906.0,2.0,3.0,6.0,False,15.0,HYPER_EQUIPPED,,,,,,,,None,True,28.0,,,False,,,,
https://www.immoweb.be/en/classified/house/for-sale/saint-leger/6747/20283726,20283726.0,HOUSE,HOUSE,Belgium,Wallonie,Saint-Léger,6747,49.6115521,5.6541312,4.0,190.0,None,,FOR_SALE,,180000.0,,,F,,TO_RENOVATE,1874.0,2.0,2.0,11.0,,10.0,NOT_INSTALLED,,,,,,,,,True,150.0,,,False,16.0,True,,
https://www.immoweb.be/en/classified/house/for-sale/aubange-halanzy/6792/20283751,20283751.0,HOUSE,HOUSE,Belgium,Wallonie,Aubange Halanzy,6792,49.5577659,5.7430217,3.0,120.0,None,,FOR_SALE,,270000.0,,,F,,GOOD,1960.0,3.0,2.0,,,8.0,,,,,,,,,,True,40.0,True,40.0,False,24.0,True,,
https://www.immoweb.be/en/classified/house/for-sale/aubange-halanzy/6792/20283724,20283724.0,HOUSE,HOUSE,Belgium,Wallonie,Aubange Halanzy,6792,49.564969,5.7589481,3.0,189.0,None,,FOR_SALE,,435000.0,,,D,,GOOD,1953.0,4.0,2.0,10.0,,17.0,,,,,,,,,,True,900.0,True,,False,45.0,True,,
https://www.immoweb.be/en/classified/house/for-sale/grivegnee/4030/20294036,20294036.0,HOUSE,HOUSE,Belgium,Wallonie,GRIVEGNEE,4030,50.6291685,5.593922399999999,2.0,120.0,None,,FOR_SALE,,248000.0,,,E,,GOOD,,3.0,2.0,,,8.0,INSTALLED,,,,,,,,,True,155.0,True,12.0,True,31.0,True,,
https://www.immoweb.be/en/classified/house/for-sale/oudenaarde/9700/20293543,20293543.0,HOUSE,HOUSE,Belgium,Flanders,Oudenaarde,9700,50.8413102,3.6111569,3.0,86.0,None,14.0,FOR_SALE,,335000.0,,False,B,,GOOD,1875.0,2.0,2.0,6.0,,9.0,,,,,,,,,,,,True,,False,31.0,True,,
https://www.immoweb.be/en/classified/house/for-sale/wilrijk/2610/20288711,20288711.0,HOUSE,HOUSE,Belgium,Flanders,WILRIJK,2610,51.181361,4.3762362,2.0,140.0,None,,FOR_SALE,,299000.0,,,D,,AS_NEW,1935.0,2.0,,5.0,,15.0,INSTALLED,,,,,,,,,True,103.0,,,False,35.0,True,,
https://www.immoweb.be/en/classified/house/for-sale/libramont-chevigny/6800/20297350,20297350.0,HOUSE,HOUSE,Belgium,Wallonie,Libramont-Chevigny,6800,49.9166907,5.349044999999999,5.0,262.0,None,,FOR_SALE,,479000.0,,False,B,,GOOD,1971.0,4.0,,18.5,False,28.0,HYPER_EQUIPPED,,,,,,,,,,,True,25.0,False,43.0,True,,
https://www.immoweb.be/en/classified/house/for-sale/willebroek%20blaasveld/2830/20297345,20297345.0,HOUSE,HOUSE,Belgium,Flanders,Willebroek Blaasveld,2830,51.0560588,4.3770162,3.0,137.0,None,,FOR_SALE,,315000.0,,False,F,,TO_RENOVATE,1954.0,4.0,,,,,,,,,,,,,,,,True,,False,31.0,True,None,
https://www.immoweb.be/en/classified/house/for-sale/willebroek/2830/20297344,20297344.0,HOUSE,HOUSE,Belgium,Flanders,Willebroek,2830,51.0445724,4.356434399999999,3.0,146.0,None,,FOR_SALE,,479000.0,,False,A,,AS_NEW,2022.0,3.0,,,,20.0,HYPER_EQUIPPED,,,,,,,,,,,True,,False,24.0,True,,
https://www.immoweb.be/en/classified/house/for-sale/willebroek/2830/20297343,20297343.0,HOUSE,HOUSE,Belgium,Flanders,Willebroek,2830,51.06304739999999,4.3608236,4.0,248.0,None,,FOR_SALE,,329000.0,,False,D,,GOOD,1918.0,2.0,,,,16.0,HYPER_EQUIPPED,,,,,,,,,,,True,,False,40.0,True,,
https://www.immoweb.be/en/classified/house/for-sale/flobecq/7880/20297339,20297339.0,HOUSE,HOUSE,Belgium,Wallonie,FLOBECQ,7880,50.7419648,3.7364549,3.0,125.0,None,,FOR_SALE,,170000.0,,,F,,GOOD,,2.0,,,,9.0,SEMI_EQUIPPED,,,,,,,,None,,,,,False,,,,
https://www.immoweb.be/en/classified/house/for-sale/alken/3570/20297332,20297332.0,HOUSE,HOUSE,Belgium,Flanders,Alken,3570,50.8820363,5.2990094,6.0,296.0,None,,FOR_SALE,,495000.0,,False,D,,,1984.0,4.0,,,False,,,,,,,,,,None,,,,,False,,,None,
https://www.immoweb.be/en/classified/house/for-sale/balen/2490/20297331,20297331.0,HOUSE,HOUSE,Belgium,Flanders,Balen,2490,51.18747390000001,5.235960299999999,6.0,393.0,None,,FOR_SALE,,525000.0,,False,B,,,2000.0,4.0,,,False,,,,,,,,,,None,,,,,False,,,None,
https://www.immoweb.be/en/classified/house/for-sale/gouvy/6670/20297327,20297327.0,HOUSE,HOUSE,Belgium,Wallonie,Gouvy,6670,50.15737439999999,5.925027600000001,2.0,312.0,None,,FOR_SALE,,150000.0,,False,,,,1850.0,4.0,,21.0,False,17.0,,,,,,,,,,,,,,False,17.0,True,,
https://www.immoweb.be/en/classified/house/for-sale/gouvy/6670/20297326,20297326.0,HOUSE,HOUSE,Belgium,Wallonie,Gouvy,6670,50.1576958,5.924321399999999,4.0,179.0,None,,FOR_SALE,,170000.0,,False,E,,,1850.0,2.0,,10.0,False,10.0,,,,,,,,,,,,,,False,29.0,True,,
https://www.immoweb.be/en/classified/house/for-sale/hulshout/2235/20297316,20297316.0,HOUSE,HOUSE,Belgium,Flanders,Hulshout,2235,51.06967239999999,4.8122544,5.0,347.0,None,,FOR_SALE,,599000.0,,,C,,AS_NEW,1996.0,4.0,,,,,HYPER_EQUIPPED,,,,,,,,None,,,True,,False,,,,
https://www.immoweb.be/en/classified/house/for-sale/harelbeke/8530/20297315,20297315.0,HOUSE,HOUSE,Belgium,Flanders,Harelbeke,8530,50.8373375,3.2883683,3.0,86.0,None,,FOR_SALE,,149000.0,,False,F,,TO_RENOVATE,1930.0,3.0,3.0,4.0,,,INSTALLED,,,,,,,,None,,,,,False,,,,
https://www.immoweb.be/en/classified/house/for-sale/merksem/2170/20297286,20297286.0,HOUSE,HOUSE,Belgium,Flanders,Merksem,2170,51.2520111,4.4475659,4.0,200.0,None,,FOR_SALE,,395000.0,,False,A,,GOOD,1958.0,2.0,2.0,,False,,,,,,,,,,None,True,66.0,,,False,,,None,
https://www.immoweb.be/en/classified/house/for-sale/wetteren/9230/20296352,20296352.0,HOUSE,HOUSE,Belgium,Flanders,Wetteren,9230,51.0112616,3.9092939,3.0,150.0,None,,FOR_SALE,,249000.0,,False,D,,TO_RENOVATE,1960.0,3.0,1.0,5.8,False,19.0,INSTALLED,,,,,,,,,,,,,False,30.0,True,,
https://www.immoweb.be/en/classified/house/for-sale/brakel/9660/20297037,20297037.0,HOUSE,HOUSE,Belgium,Flanders,Brakel,9660,50.81663820000001,3.7516134,3.0,203.0,None,14.0,FOR_SALE,,445000.0,,,B,,GOOD,2007.0,,2.0,15.0,,12.0,INSTALLED,,,,,,,,,,,,,False,18.0,True,,
https://www.immoweb.be/en/classified/house/for-sale/belsele/9111/20297219,20297219.0,HOUSE,HOUSE,Belgium,Flanders,BELSELE,9111,51.1744885,4.081122300000001,5.0,360.0,None,,FOR_SALE,,675000.0,,,B,,JUST_RENOVATED,,3.0,,,,,HYPER_EQUIPPED,,,,,,,,,True,1900.0,True,50.0,False,78.0,True,,
https://www.immoweb.be/en/classified/house/for-sale/wavre/1300/20295336,20295336.0,HOUSE,HOUSE,Belgium,Wallonie,Wavre,1300,50.7246882,4.618847,3.0,150.0,None,,FOR_SALE,,220000.0,,,E,,TO_RENOVATE,,2.0,2.0,,,11.0,,,,,,,,,,,,,,False,34.0,True,,
https://www.immoweb.be/en/classified/house/for-sale/liege/4000/20295481,20295481.0,HOUSE,HOUSE,Belgium,Wallonie,LIÈGE,4000,50.6585186,5.5529058,2.0,186.0,None,,FOR_SALE,,379000.0,,,D,,GOOD,1995.0,3.0,2.0,,False,,INSTALLED,,,,,,,,,True,115.0,True,18.0,False,38.0,True,,
https://www.immoweb.be/en/classified/house/for-sale/saint-leger/6747/20283697,20283697.0,HOUSE,HOUSE,Belgium,Wallonie,Saint-Léger,6747,49.6124012,5.6534363,3.0,150.0,None,,FOR_SALE,,99000.0,,,F,,TO_RENOVATE,1850.0,3.0,1.0,,,,NOT_INSTALLED,,,,,,,,,True,90.0,,,False,26.0,True,,
https://www.immoweb.be/en/classified/house/for-sale/virton/6760/20283700,20283700.0,HOUSE,HOUSE,Belgium,Wallonie,Virton,6760,49.5694994,5.533473799999999,3.0,120.0,None,,FOR_SALE,,135000.0,,,G,,TO_RENOVATE,1850.0,2.0,2.0,,,7.0,NOT_INSTALLED,,,,,,,,,,,True,10.0,False,16.0,True,,
https://www.immoweb.be/en/classified/house/for-sale/chiny-les-bulles/6811/20283717,20283717.0,HOUSE,HOUSE,Belgium,Wallonie,Chiny Les Bulles,6811,49.7077481,5.422801799999999,3.0,140.0,None,,FOR_SALE,,195000.0,,,E,,TO_RENOVATE,1950.0,3.0,2.0,,,10.0,NOT_INSTALLED,,,,,,,,,True,400.0,,,False,18.0,True,,
https://www.immoweb.be/en/classified/house/for-sale/aubange-rachecourt/6792/20283740,20283740.0,HOUSE,HOUSE,Belgium,Wallonie,Aubange Rachecourt,6792,49.5949039,5.7233279,4.0,170.0,None,,FOR_SALE,,290000.0,,,G,,TO_RENOVATE,1952.0,4.0,1.0,,,16.0,NOT_INSTALLED,,,,,,,,,True,1100.0,,,False,16.0,True,,
https://www.immoweb.be/en/classified/house/for-sale/duffel/2570/20284739,20284739.0,HOUSE,HOUSE,Belgium,Flanders,DUFFEL,2570,51.0929221,4.514097599999999,3.0,130.0,None,,FOR_SALE,,292000.0,,,E,,TO_RENOVATE,1951.0,,2.0,,,19.0,SEMI_EQUIPPED,,,,,,,,,True,140.0,True,14.0,False,23.0,True,,
https://www.immoweb.be/en/classified/house/for-sale/virton-ethe/6760/20283742,20283742.0,HOUSE,HOUSE,Belgium,Wallonie,Virton Ethe,6760,49.5813411,5.5674855,7.0,330.0,None,,FOR_SALE,,555000.0,,,C,,GOOD,2007.0,4.0,2.0,,,31.0,USA_INSTALLED,,,,,,,,,True,700.0,True,20.0,False,24.0,True,,
https://www.immoweb.be/en/classified/house/for-sale/malmedy/4960/20293453,20293453.0,HOUSE,HOUSE,Belgium,Wallonie,Malmedy,4960,50.42884129999999,6.0236822,3.0,51.0,None,,FOR_SALE,,70000.0,,False,E,,TO_BE_DONE_UP,1850.0,2.0,2.0,3.0,False,15.0,NOT_INSTALLED,,,,,,,,,,,,,False,8.0,True,,
https://www.immoweb.be/en/classified/house/for-sale/liege/4020/20287391,20287391.0,HOUSE,HOUSE,Belgium,Wallonie,Liège,4020,50.6592811,5.6532238,3.0,116.0,None,,FOR_SALE,,134000.0,,False,G,,TO_BE_DONE_UP,1850.0,2.0,1.0,4.0,False,13.0,SEMI_EQUIPPED,,,,,,,,,True,120.0,,,False,34.0,True,,
https://www.immoweb.be/en/classified/house/for-sale/liege/4020/20286168,20286168.0,HOUSE,HOUSE,Belgium,Wallonie,Liège,4020,50.6400824,5.598340299999999,4.0,128.0,None,,FOR_SALE,,139000.0,,False,D,,TO_RENOVATE,1899.0,2.0,2.0,5.0,False,10.0,NOT_INSTALLED,,,,,,,,,True,46.0,True,20.0,False,13.0,True,,
https://www.immoweb.be/en/classified/house/for-sale/oudenaarde/9700/20287732,20287732.0,HOUSE,HOUSE,Belgium,Flanders,Oudenaarde,9700,50.8656461,3.645737899999999,3.0,165.0,None,16.0,FOR_SALE,,398000.0,,False,C,,GOOD,1978.0,2.0,4.0,10.0,,15.0,,,,,,,,,,,,True,,False,35.0,True,,
https://www.immoweb.be/en/classified/house/for-sale/ruddervoorde/8020/20296104,20296104.0,HOUSE,HOUSE,Belgium,Flanders,Ruddervoorde,8020,51.100579,3.1812232,2.0,112.0,None,8.0,FOR_SALE,,155000.0,,,F,,TO_RENOVATE,1874.0,,,,,,,,,,,,,,None,,,True,,False,,,None,
https://www.immoweb.be/en/classified/house/for-sale/affligem/1790/20296093,20296093.0,HOUSE,HOUSE,Belgium,Flanders,Affligem,1790,50.9201804,4.1046926,3.0,190.0,None,,FOR_SALE,,369000.0,,False,C,,GOOD,1939.0,4.0,2.0,22.0,False,14.0,SEMI_EQUIPPED,,,,,,,,,,,True,,False,35.0,True,,
https://www.immoweb.be/en/classified/house/for-sale/wetteren/9230/20296094,20296094.0,HOUSE,HOUSE,Belgium,Flanders,Wetteren,9230,50.9807962,3.8889502,4.0,245.0,None,,FOR_SALE,,447500.0,,False,D,,GOOD,1919.0,4.0,3.0,10.0,False,,HYPER_EQUIPPED,,,,,,,,None,True,124.0,True,46.0,False,,,,
https://www.immoweb.be/en/classified/house/for-sale/oostende/8400/11391789,11391789.0,HOUSE,HOUSE,Belgium,Flanders,Oostende,8400,51.2106575,2.9089649,4.0,140.0,None,,FOR_SALE,,279000.0,289000.0,False,F,,GOOD,,3.0,3.0,,False,,INSTALLED,,,,,,,,None,,,,,False,,,,
https://www.immoweb.be/en/classified/house/for-sale/sambreville/5060/20297260,20297260.0,HOUSE,HOUSE,Belgium,Wallonie,SAMBREVILLE,5060,50.42275799999999,4.6216716,4.0,157.0,None,,FOR_SALE,,180000.0,,,E,,TO_RENOVATE,,3.0,,12.0,,,,,,,,,,,,True,540.0,True,40.0,False,40.0,True,None,
https://www.immoweb.be/en/classified/house/for-sale/knokke/8300/20297258,20297258.0,HOUSE,HOUSE,Belgium,Flanders,Knokke,8300,51.3246814,3.2979092,3.0,,None,1.0,FOR_SALE,,469000.0,,,F,,TO_RENOVATE,1953.0,2.0,2.0,6.5,,,,,,,,,,,None,,,True,,False,,,None,
https://www.immoweb.be/en/classified/house/for-sale/kortrijk/8500/20297254,20297254.0,HOUSE,HOUSE,Belgium,Flanders,Kortrijk,8500,50.8362168,3.2622459,3.0,124.0,None,1.0,FOR_SALE,,395000.0,,,None,,GOOD,2025.0,4.0,,,,,,,,,,,,,None,,,,,False,,,None,
https://www.immoweb.be/en/classified/house/for-sale/oostende/8400/20297246,20297246.0,HOUSE,HOUSE,Belgium,Flanders,Oostende,8400,51.2140147,2.9069926,2.0,86.0,None,1.0,FOR_SALE,,239000.0,,,None,,AS_NEW,1998.0,4.0,,,,,,,,,,,,,,,,True,7.0,False,36.0,True,None,
https://www.immoweb.be/en/classified/house/for-sale/ieper/8900/20297243,20297243.0,HOUSE,HOUSE,Belgium,Flanders,Ieper,8900,50.8428848,2.870582,3.0,148.0,None,1.0,FOR_SALE,,219000.0,,,C,,,,2.0,,4.5,,12.0,,,,,,,,,,True,200.0,,,False,25.0,True,,
https://www.immoweb.be/en/classified/house/for-sale/ninove/9400/11135601,11135601.0,HOUSE,HOUSE,Belgium,Flanders,Ninove,9400,50.816197,4.0089206,4.0,228.0,None,,FOR_SALE,,279000.0,289000.0,False,None,,,2024.0,3.0,,12.0,,14.0,,,,,,,,,,,,True,23.0,False,10.0,True,,
https://www.immoweb.be/en/classified/house/for-sale/hulshout/2235/20079091,20079091.0,HOUSE,HOUSE,Belgium,Flanders,Hulshout,2235,51.0726032,4.8271772,3.0,,None,13.0,FOR_SALE,,165000.0,175000.0,False,F,,TO_RENOVATE,1934.0,,,,False,,,,,,,,,,None,,,True,,False,,,None,
https://www.immoweb.be/en/classified/house/for-sale/ocquier/4560/20297217,20297217.0,HOUSE,HOUSE,Belgium,Wallonie,OCQUIER,4560,50.39632719999999,5.3960807,1.0,56.0,None,,FOR_SALE,,119000.0,,,G,,TO_BE_DONE_UP,,3.0,1.0,,,,SEMI_EQUIPPED,,,,,,,,,,,True,,False,15.0,True,,
https://www.immoweb.be/en/classified/house/for-sale/moorslede/8890/20297213,20297213.0,HOUSE,HOUSE,Belgium,Flanders,Moorslede,8890,50.8598838,3.0817889,3.0,147.0,None,4.0,FOR_SALE,,339000.0,,,D,,GOOD,,,1.0,,,,,,,,,,,,None,,,True,,True,,,None,
https://www.immoweb.be/en/classified/house/for-sale/gentbrugge/9050/20297185,20297185.0,HOUSE,HOUSE,Belgium,Flanders,Gentbrugge,9050,51.0311703,3.763176399999999,2.0,52.0,None,10.0,FOR_SALE,,319000.0,,,C,,GOOD,,,,4.0,,,,,,,,,,,None,,,True,,False,,,None,
https://www.immoweb.be/en/classified/house/for-sale/sint-niklaas/9100/20297182,20297182.0,HOUSE,HOUSE,Belgium,Flanders,Sint-Niklaas,9100,51.171556,4.148693199999999,3.0,,None,16.0,FOR_SALE,,289500.0,,,B,,JUST_RENOVATED,,,,,,,,,,,,,,,None,,,True,,False,,,None,
https://www.immoweb.be/en/classified/house/for-sale/gent/9000/20297178,20297178.0,HOUSE,HOUSE,Belgium,Flanders,Gent,9000,51.0580211,3.721693499999999,3.0,223.0,None,14.0,FOR_SALE,,545000.0,,,E,,,,,,,,9.0,,,,,,,,,,,,True,36.0,False,23.0,True,,None
https://www.immoweb.be/en/classified/house/for-sale/izegem/8870/20297171,20297171.0,HOUSE,HOUSE,Belgium,Flanders,Izegem,8870,50.9139303,3.229112,4.0,121.0,None,14.0,FOR_SALE,,199500.0,,,F,,,1971.0,,,,,,,,,,,,,,None,,,True,,False,,,None,
https://www.immoweb.be/en/classified/house/for-sale/sint-margriete/9981/20297169,20297169.0,HOUSE,HOUSE,Belgium,Flanders,Sint-Margriete,9981,51.28227469999999,3.5445672,3.0,178.0,None,12.0,FOR_SALE,,447000.0,,,A,,GOOD,2020.0,,,,,19.0,HYPER_EQUIPPED,,,,,,,,,,,True,,False,28.0,True,,
https://www.immoweb.be/en/classified/house/for-sale/deerlijk/8540/20261840,20261840.0,HOUSE,HOUSE,Belgium,Flanders,Deerlijk,8540,50.84520930000001,3.3811581,3.0,160.0,None,13.0,FOR_SALE,,268000.0,,False,D,,GOOD,,,,,,,,,,,,,,,None,,,,,False,,,None,
https://www.immoweb.be/en/classified/house/for-sale/heule/8501/20297162,20297162.0,HOUSE,HOUSE,Belgium,Flanders,Heule,8501,,,4.0,206.0,None,18.0,FOR_SALE,,459000.0,,False,B,,JUST_RENOVATED,,,,,,,,,,,,,,,None,,,True,,False,,,None,
https://www.immoweb.be/en/classified/house/for-sale/eke/9810/20294241,20294241.0,HOUSE,HOUSE,Belgium,Flanders,Eke,9810,50.9560115,3.643142,3.0,215.0,None,16.0,FOR_SALE,,419000.0,,False,B,,GOOD,1968.0,2.0,4.0,5.0,,19.0,,,,,,,,,,,,True,3.0,False,23.0,True,,
https://www.immoweb.be/en/classified/house/for-sale/zwalm/9630/20290913,20290913.0,HOUSE,HOUSE,Belgium,Flanders,Zwalm,9630,50.8702619,3.7070415,2.0,145.0,None,16.0,FOR_SALE,,452000.0,,False,E,,GOOD,1994.0,4.0,2.0,12.0,,11.0,,,,,,,,,,,,True,,False,46.0,True,,
https://www.immoweb.be/en/classified/house/for-sale/gent/9000/20289915,20289915.0,HOUSE,HOUSE,Belgium,Flanders,Gent,9000,51.0283625,3.7261886,5.0,200.0,None,,FOR_SALE,,1100000.0,,True,A,,AS_NEW,1963.0,2.0,3.0,9.01,False,13.0,HYPER_EQUIPPED,,,,,,,,,True,41.0,True,13.0,False,34.0,True,,
https://www.immoweb.be/en/classified/house/for-sale/saint-leger/6747/20283753,20283753.0,HOUSE,HOUSE,Belgium,Wallonie,Saint-Léger,6747,49.61002209999999,5.6593797,3.0,120.0,None,,FOR_SALE,,155000.0,,,G,,TO_RENOVATE,1850.0,3.0,2.0,11.0,,12.0,NOT_INSTALLED,,,,,,,,,True,100.0,,,False,27.0,True,,
https://www.immoweb.be/en/classified/house/for-sale/saint-nicolas/4420/20292112,20292112.0,HOUSE,HOUSE,Belgium,Wallonie,Saint-nicolas,4420,50.6279893,5.515922900000001,2.0,111.0,None,12.0,FOR_SALE,,239000.0,,,E,,GOOD,1969.0,3.0,1.0,11.0,False,15.0,INSTALLED,,,,,,,,,True,291.0,True,39.0,False,31.0,True,,
https://www.immoweb.be/en/classified/house/for-sale/dendermonde/9200/20293510,20293510.0,HOUSE,HOUSE,Belgium,Flanders,Dendermonde,9200,51.0279221,4.104079,5.0,247.0,None,14.0,FOR_SALE,,415000.0,,,C,,GOOD,,,,,,13.0,INSTALLED,,,,,,,,,True,97.0,True,5.0,False,48.0,True,,
https://www.immoweb.be/en/classified/house/for-sale/knokke-heist/8300/20293477,20293477.0,HOUSE,HOUSE,Belgium,Flanders,Knokke-Heist,8300,51.337082,3.2799732,6.0,404.0,None,19.0,FOR_SALE,,4875000.0,,False,A,,GOOD,2020.0,4.0,2.0,,,,HYPER_EQUIPPED,,,,,,,,None,,,True,,False,,,,
https://www.immoweb.be/en/classified/house/for-sale/gavere-dikkelvenne/9890/20286576,20286576.0,HOUSE,HOUSE,Belgium,Flanders,Gavere Dikkelvenne,9890,50.9178063,3.6903605,4.0,149.0,None,,FOR_SALE,,417250.0,,False,D,,TO_BE_DONE_UP,1971.0,3.0,2.0,,False,13.0,HYPER_EQUIPPED,,,,,,,,,True,314.0,True,40.0,False,29.0,True,,
https://www.immoweb.be/en/classified/house/for-sale/ingelmunster/8770/20297143,20297143.0,HOUSE,HOUSE,Belgium,Flanders,Ingelmunster,8770,50.9230358,3.2580369,3.0,163.0,None,15.0,FOR_SALE,,239000.0,,,F,,GOOD,1949.0,,,,,,INSTALLED,,,,,,,,None,,,True,,False,,,,
https://www.immoweb.be/en/classified/house/for-sale/bekkevoort/3460/20296906,20296906.0,HOUSE,HOUSE,Belgium,Flanders,Bekkevoort,3460,50.9497288,4.9539548,2.0,171.0,None,10.0,FOR_SALE,,349000.0,,,F,,TO_RENOVATE,1968.0,,,11.0,,8.0,SEMI_EQUIPPED,,,,,,,,,,,True,20.0,False,47.0,True,,
https://www.immoweb.be/en/classified/house/for-sale/staden/8840/20297072,20297072.0,HOUSE,HOUSE,Belgium,Flanders,Staden,8840,50.9713015,3.0176259,4.0,223.0,None,16.0,FOR_SALE,,459000.0,,,A,,GOOD,2015.0,,,,,,INSTALLED,,,,,,,,None,,,True,,False,,,,
https://www.immoweb.be/en/classified/house/for-sale/hulshout/2235/20297316,20297316.0,HOUSE,HOUSE,Belgium,Flanders,Hulshout,2235,51.06967239999999,4.8122544,5.0,347.0,None,,FOR_SALE,,599000.0,,,C,,AS_NEW,1996.0,4.0,,,,,HYPER_EQUIPPED,,,,,,,,None,,,True,,False,,,,
https://www.immoweb.be/en/classified/house/for-sale/ronse/9600/20281583,20281583.0,HOUSE,HOUSE,Belgium,Flanders,RONSE,9600,50.73644640000001,3.5971493,3.0,150.0,None,,FOR_SALE,,325000.0,,,B,,GOOD,1966.0,2.0,3.0,,,8.0,INSTALLED,,,,,,,,None,,,True,,False,,,,
https://www.immoweb.be/en/classified/house/for-sale/kortrijk/8500/20297163,20297163.0,HOUSE,HOUSE,Belgium,Flanders,Kortrijk,8500,50.8421409,3.2572342,4.0,206.0,None,18.0,FOR_SALE,,459000.0,,False,B,,JUST_RENOVATED,,,,,,,,,,,,,,,None,,,True,,False,,,None,
https://www.immoweb.be/en/classified/house/for-sale/sint-martens-latem/9830/20297161,20297161.0,HOUSE,HOUSE,Belgium,Flanders,Sint-Martens-Latem,9830,51.0065022,3.623027399999999,5.0,247.0,None,,FOR_SALE,,1245000.0,,False,F,,TO_RENOVATE,1952.0,,,,False,,INSTALLED,,,,,,,,None,,,,,False,,,,
https://www.immoweb.be/en/classified/house/for-sale/oudenaarde/9700/20297160,20297160.0,HOUSE,HOUSE,Belgium,Flanders,Oudenaarde,9700,,,3.0,189.0,None,,FOR_SALE,,426291.0,,,None,,,,3.0,2.0,7.0,,,,,,,,,,,None,,,,,False,,,None,
https://www.immoweb.be/en/classified/house/for-sale/oudenaarde/9700/20297159,20297159.0,HOUSE,HOUSE,Belgium,Flanders,Oudenaarde,9700,,,3.0,245.0,None,,FOR_SALE,,496319.0,,,None,,,,3.0,2.0,8.0,,,,,,,,,,,None,,,,,False,,,None,
https://www.immoweb.be/en/classified/house/for-sale/merelbeke/9820/20297158,20297158.0,HOUSE,HOUSE,Belgium,Flanders,Merelbeke,9820,,,4.0,225.0,None,,FOR_SALE,,563008.0,,,None,,,,4.0,1.0,10.0,,,,,,,,,,,None,,,,,False,,,None,
https://www.immoweb.be/en/classified/house/for-sale/baaigem/9890/20297157,20297157.0,HOUSE,HOUSE,Belgium,Flanders,Baaigem,9890,,,4.0,249.0,None,,FOR_SALE,,695572.0,,,None,,,,4.0,2.0,11.0,,,,,,,,,,,None,,,,,False,,,None,
https://www.immoweb.be/en/classified/house/for-sale/helkijn/8587/20297152,20297152.0,HOUSE,HOUSE,Belgium,Flanders,Helkijn,8587,50.7309898,3.3822926,3.0,187.0,None,8.0,FOR_SALE,,249000.0,,,C,,JUST_RENOVATED,,,,8.0,,,,,,,,,,,None,,,,,False,,,None,
https://www.immoweb.be/en/classified/house/for-sale/waarmaarde/8581/20297154,20297154.0,HOUSE,HOUSE,Belgium,Flanders,Waarmaarde,8581,50.7876255,3.4800156,3.0,150.0,None,12.0,FOR_SALE,,258000.0,,,F,,TO_RENOVATE,,,,11.0,,14.0,INSTALLED,,,,,,,,None,True,613.0,,,False,,,,
https://www.immoweb.be/en/classified/house/for-sale/veltem-beisem/3020/20297149,20297149.0,HOUSE,HOUSE,Belgium,Flanders,Veltem-Beisem,3020,50.9368819,4.6217523,3.0,232.0,None,15.0,FOR_SALE,,595000.0,,False,B,,,,,,,,,,,,,,,,,None,,,,,False,,,None,None
https://www.immoweb.be/en/classified/house/for-sale/oostende/8400/20297145,20297145.0,HOUSE,HOUSE,Belgium,Flanders,Oostende,8400,51.2104747,2.9038531,3.0,178.0,None,13.0,FOR_SALE,,325000.0,,False,C,,,,,,,,,,,,,,,,,None,,,True,,False,,,None,None
https://www.immoweb.be/en/classified/house/for-sale/gent/9000/20297144,20297144.0,HOUSE,HOUSE,Belgium,Flanders,Gent,9000,51.0657241,3.6991137,3.0,225.0,None,10.0,FOR_SALE,,407000.0,,False,D,,TO_BE_DONE_UP,1918.0,,,8.0,,,INSTALLED,,,,,,,,None,,,,,False,,,,
https://www.immoweb.be/en/classified/house/for-sale/ingelmunster/8770/20297143,20297143.0,HOUSE,HOUSE,Belgium,Flanders,Ingelmunster,8770,50.9230358,3.2580369,3.0,163.0,None,15.0,FOR_SALE,,239000.0,,,F,,GOOD,1949.0,,,,,,INSTALLED,,,,,,,,None,,,True,,False,,,,
https://www.immoweb.be/en/classified/house/for-sale/peer/3990/11284245,11284245.0,HOUSE,HOUSE,Belgium,Flanders,Peer,3990,51.1323187,5.406538299999999,3.0,,None,3.0,FOR_SALE,,286000.0,,False,A+,,,2024.0,,,6.0,,,,,,,,,,,None,,,,,False,,,None,
https://www.immoweb.be/en/classified/house/for-sale/peer/3990/20297142,20297142.0,HOUSE,HOUSE,Belgium,Flanders,Peer,3990,51.13257910000001,5.4064591,3.0,,None,3.0,FOR_SALE,,286000.0,,False,A+,,GOOD,2024.0,,,6.0,,,,,,,,,,,None,,,,,False,,,None,
https://www.immoweb.be/en/classified/house/for-sale/waregem/8790/20297133,20297133.0,HOUSE,HOUSE,Belgium,Flanders,WAREGEM,8790,50.8755934,3.33431,4.0,210.0,None,,FOR_SALE,,365000.0,,,B,,GOOD,1979.0,2.0,,,,,HYPER_EQUIPPED,,,,,,,,None,,,True,,False,,,,
https://www.immoweb.be/en/classified/house/for-sale/kallo%20%289120%29/9120/20297129,20297129.0,HOUSE,HOUSE,Belgium,Flanders,Kallo (9120),9120,51.25423439999999,4.2782833,8.0,584.0,None,17.0,FOR_SALE,,810000.0,,False,C,,GOOD,1966.0,,2.0,,,,,,,,,,,,None,,,True,,False,,,None,
https://www.immoweb.be/en/classified/house/for-sale/opwijk/1745/20258609,20258609.0,HOUSE,HOUSE,Belgium,Flanders,Opwijk,1745,,,3.0,161.0,None,6.0,FOR_SALE,,398000.0,418000.0,,,,GOOD,,,,,,,,,,,,,,,None,,,,,False,,,None,
https://www.immoweb.be/en/classified/house/for-sale/opwijk/1745/20258608,20258608.0,HOUSE,HOUSE,Belgium,Flanders,Opwijk,1745,,,3.0,161.0,None,6.0,FOR_SALE,,395000.0,415000.0,,,,GOOD,,,,,,,,,,,,,,,None,,,,,False,,,None,
https://www.immoweb.be/en/classified/house/for-sale/opwijk/1745/20258607,20258607.0,HOUSE,HOUSE,Belgium,Flanders,Opwijk,1745,,,3.0,149.0,None,6.0,FOR_SALE,,391000.0,411000.0,,,,GOOD,,,,,,,,,,,,,,,None,,,,,False,,,None,
https://www.immoweb.be/en/classified/house/for-sale/opwijk/1745/20258606,20258606.0,HOUSE,HOUSE,Belgium,Flanders,Opwijk,1745,,,3.0,149.0,None,6.0,FOR_SALE,,386000.0,406000.0,,,,GOOD,,,,,,,,,,,,,,,None,,,,,False,,,None,
https://www.immoweb.be/en/classified/house/for-sale/wenduine/8420/20071155,20071155.0,HOUSE,HOUSE,Belgium,Flanders,Wenduine,8420,51.3072373,3.1144238,3.0,170.0,None,13.0,FOR_SALE,,395000.0,449000.0,False,C,,TO_BE_DONE_UP,1976.0,,1.0,,,,INSTALLED,,,,,,,,None,,,True,,False,,,,
https://www.immoweb.be/en/classified/house/for-sale/boechout/2530/20297126,20297126.0,HOUSE,HOUSE,Belgium,Flanders,BOECHOUT,2530,51.16557340000001,4.4867226,3.0,175.0,None,,FOR_SALE,,482193.0,,,A,,,2025.0,2.0,,6.0,,,HYPER_EQUIPPED,,,,,,,,None,True,188.0,True,15.0,False,,,,
https://www.immoweb.be/en/classified/house/for-sale/verviers/4800/20284139,20284139.0,HOUSE,HOUSE,Belgium,Wallonie,Verviers,4800,50.5968434,5.8806805,5.0,143.0,None,,FOR_SALE,,239000.0,,False,D,,AS_NEW,1900.0,2.0,2.0,8.0,True,10.0,INSTALLED,,,,,,,,,True,180.0,True,20.0,False,19.0,True,,
https://www.immoweb.be/en/classified/house/for-sale/erezee/6997/20284138,20284138.0,HOUSE,HOUSE,Belgium,Wallonie,Erezée,6997,50.2813835,5.516160699999999,4.0,231.0,None,,FOR_SALE,,369000.0,,False,E,,GOOD,2011.0,4.0,2.0,14.0,False,,INSTALLED,,,,,,,,None,True,855.0,True,58.0,False,,,,
https://www.immoweb.be/en/classified/house/for-sale/woluwe-saint-lambert/1200/20285189,20285189.0,HOUSE,HOUSE,Belgium,Brussels,Woluwe-Saint-Lambert,1200,50.8387034,4.4160908,4.0,380.0,None,,FOR_SALE,,795000.0,,False,G,,TO_RENOVATE,1952.0,2.0,5.0,7.5,False,13.0,NOT_INSTALLED,,,,,,,,,True,150.0,True,5.0,False,30.0,True,,
https://www.immoweb.be/en/classified/house/for-sale/sint-lenaarts/2960/20295435,20295435.0,HOUSE,HOUSE,Belgium,Flanders,Sint-Lenaarts,2960,51.3369673,4.658773399999999,1.0,155.0,None,,FOR_SALE,,199000.0,,,F,,TO_RENOVATE,1975.0,4.0,,6.0,,,SEMI_EQUIPPED,,,,,,,,None,,,True,,False,,,,
https://www.immoweb.be/en/classified/house/for-sale/borgerhout/2140/20295763,20295763.0,HOUSE,HOUSE,Belgium,Flanders,BORGERHOUT,2140,51.221529,4.4393142,4.0,142.0,None,,FOR_SALE,,349000.0,,,D,,GOOD,1929.0,2.0,,,,,USA_HYPER_EQUIPPED,,,,,,,,None,,,True,25.0,False,,,,
https://www.immoweb.be/en/classified/house/for-sale/zottegem/9620/20294240,20294240.0,HOUSE,HOUSE,Belgium,Flanders,Zottegem,9620,50.8635866,3.8214999,4.0,120.0,None,14.0,FOR_SALE,,415000.0,,False,A,,GOOD,2019.0,3.0,3.0,6.0,,5.0,,,,,,,,,,,,True,,False,32.0,True,,
https://www.immoweb.be/en/classified/house/for-sale/waterloo/1410/20290200,20290200.0,HOUSE,HOUSE,Belgium,Wallonie,Waterloo,1410,50.7130879,4.3756911,2.0,140.0,None,,FOR_SALE,,495000.0,,False,E,,TO_RENOVATE,1976.0,4.0,1.0,,False,9.0,NOT_INSTALLED,,,,,,,,,True,190.0,True,20.0,False,53.0,True,,
https://www.immoweb.be/en/classified/house/for-sale/aubange-halanzy/6792/20283731,20283731.0,HOUSE,HOUSE,Belgium,Wallonie,Aubange Halanzy,6792,49.5767155,5.7814121,3.0,285.0,None,,FOR_SALE,,260000.0,,,F,,TO_RENOVATE,1959.0,3.0,2.0,,,19.0,NOT_INSTALLED,,,,,,,,,True,450.0,True,20.0,False,21.0,True,,
https://www.immoweb.be/en/classified/house/for-sale/messancy/6780/20283747,20283747.0,HOUSE,HOUSE,Belgium,Wallonie,Messancy,6780,49.59238449999999,5.8149564,3.0,200.0,None,,FOR_SALE,,299000.0,,,D,,GOOD,1850.0,3.0,2.0,,,20.0,,,,,,,,,,True,280.0,True,20.0,True,19.0,True,,
https://www.immoweb.be/en/classified/house/for-sale/messancy/6780/20283708,20283708.0,HOUSE,HOUSE,Belgium,Wallonie,Messancy,6780,49.5782652,5.8389378,3.0,130.0,None,,FOR_SALE,,405000.0,,,B,,GOOD,2013.0,2.0,1.0,,,11.0,,,,,,,,,,True,120.0,True,25.0,False,28.0,True,,
https://www.immoweb.be/en/classified/house/for-sale/bonnert/6700/20284705,20284705.0,HOUSE,HOUSE,Belgium,Wallonie,BONNERT,6700,49.6804163,5.840734599999999,5.0,300.0,None,,FOR_SALE,,420000.0,,,E,,GOOD,1977.0,4.0,1.0,,,21.0,,,,,,,,,,True,2500.0,True,15.0,False,28.0,True,,
https://www.immoweb.be/en/classified/house/for-sale/etalle/6740/20283723,20283723.0,HOUSE,HOUSE,Belgium,Wallonie,Etalle,6740,49.67139659999999,5.5909783,4.0,189.0,None,,FOR_SALE,,494000.0,,,B,,AS_NEW,2016.0,3.0,1.0,,,,,,,,,,,,,,,True,,False,40.0,True,None,
https://www.immoweb.be/en/classified/house/for-sale/grimbergen/1850/20282998,20282998.0,HOUSE,HOUSE,Belgium,Flanders,GRIMBERGEN,1850,50.9252327,4.365029199999999,4.0,184.0,None,,FOR_SALE,,710000.0,,,B,,GOOD,1990.0,4.0,2.0,,,,INSTALLED,,,,,,,,None,True,1000.0,True,,False,,,,
https://www.immoweb.be/en/classified/house/for-sale/maldegem/9990/20287731,20287731.0,HOUSE,HOUSE,Belgium,Flanders,Maldegem,9990,51.2059965,3.384196,2.0,135.0,None,14.0,FOR_SALE,,247000.0,,False,F,,TO_RENOVATE,1964.0,4.0,1.0,11.0,,17.0,,,,,,,,,,,,True,,False,26.0,True,,
https://www.immoweb.be/en/classified/house/for-sale/geraardsbergen/9500/20288916,20288916.0,HOUSE,HOUSE,Belgium,Flanders,GERAARDSBERGEN,9500,50.7521206,3.9254954,3.0,167.0,None,,FOR_SALE,,299999.0,,,D,,GOOD,1938.0,2.0,,,,16.0,INSTALLED,,,,,,,,,True,895.0,True,,False,37.0,True,,
https://www.immoweb.be/en/classified/house/for-sale/heist-op-den-berg/2220/20290597,20290597.0,HOUSE,HOUSE,Belgium,Flanders,HEIST-OP-DEN-BERG,2220,51.0738496,4.6907583,3.0,157.0,None,,FOR_SALE,,376000.0,,,E,,TO_RENOVATE,1970.0,4.0,,,,11.0,INSTALLED,,,,,,,,None,,,,,False,,,,
https://www.immoweb.be/en/classified/house/for-sale/lierde/9570/20297036,20297036.0,HOUSE,HOUSE,Belgium,Flanders,Lierde,9570,50.7829644,3.8341607,2.0,128.0,None,11.0,FOR_SALE,,250000.0,,,F,,GOOD,1974.0,,,8.0,,9.0,,,,,,,,,,,,,,False,30.0,True,,
https://www.immoweb.be/en/classified/house/for-sale/waarmaarde/8581/20297154,20297154.0,HOUSE,HOUSE,Belgium,Flanders,Waarmaarde,8581,50.7876255,3.4800156,3.0,150.0,None,12.0,FOR_SALE,,258000.0,,,F,,TO_RENOVATE,,,,11.0,,14.0,INSTALLED,,,,,,,,None,True,613.0,,,False,,,,
https://www.immoweb.be/en/classified/house/for-sale/gent/9000/20296944,20296944.0,HOUSE,HOUSE,Belgium,Flanders,Gent,9000,51.0343832,3.727948399999999,3.0,125.0,None,10.0,FOR_SALE,,379000.0,,,D,,TO_RENOVATE,1918.0,,,,,,INSTALLED,,,,,,,,None,,,True,,False,,,,
https://www.immoweb.be/en/classified/house/for-sale/gentbrugge/9050/20297363,20297363.0,HOUSE,HOUSE,Belgium,Flanders,Gentbrugge,9050,51.0284723,3.764137499999999,3.0,146.0,None,,FOR_SALE,,467000.0,,False,None,,AS_NEW,2024.0,2.0,2.0,,False,8.0,HYPER_EQUIPPED,,,,,,,,,True,100.0,True,,False,41.0,True,,
https://www.immoweb.be/en/classified/house/for-sale/gentbrugge/9050/20297384,20297384.0,HOUSE,HOUSE,Belgium,Flanders,Gentbrugge,9050,51.0284723,3.764137499999999,3.0,144.0,None,,FOR_SALE,,469000.0,,False,None,,AS_NEW,2024.0,2.0,2.0,,False,8.0,HYPER_EQUIPPED,,,,,,,,,True,117.0,True,,False,41.0,True,,
https://www.immoweb.be/en/classified/house/for-sale/gentbrugge/9050/20297371,20297371.0,HOUSE,HOUSE,Belgium,Flanders,Gentbrugge,9050,51.0284723,3.764137499999999,3.0,144.0,None,,FOR_SALE,,547500.0,,False,None,,AS_NEW,2024.0,3.0,2.0,,False,8.0,HYPER_EQUIPPED,,,,,,,,,True,300.0,True,,False,38.0,True,,
https://www.immoweb.be/en/classified/house/for-sale/geraardsbergen/9500/20296406,20296406.0,HOUSE,HOUSE,Belgium,Flanders,Geraardsbergen,9500,50.78830259999999,3.8395604,5.0,259.0,None,,FOR_SALE,,615000.0,,,B,,AS_NEW,2000.0,4.0,,,False,,HYPER_EQUIPPED,,,,,,,,,,,True,,False,50.0,True,,
https://www.immoweb.be/en/classified/house/for-sale/opwijk/1745/11295014,11295014.0,HOUSE,HOUSE,Belgium,Flanders,Opwijk,1745,50.9694015,4.1982747,3.0,147.0,None,6.0,FOR_SALE,,397000.0,417000.0,,,,GOOD,,,,,,,,,,,,,,,None,,,,,False,,,None,
https://www.immoweb.be/en/classified/house/for-sale/willebroek/2830/20297113,20297113.0,HOUSE,HOUSE,Belgium,Flanders,WILLEBROEK,2830,,,2.0,154.0,None,,FOR_SALE,,428000.0,,,F,,AS_NEW,,,,,,22.0,INSTALLED,,,,,,,,None,,,True,,False,,,,
https://www.immoweb.be/en/classified/house/for-sale/bellecourt/7170/20297112,20297112.0,HOUSE,HOUSE,Belgium,Wallonie,Bellecourt,7170,,,4.0,198.0,None,7.0,FOR_SALE,,362764.0,,,,,GOOD,,,,,,,,,,,,,,,None,,,,,False,,,None,
https://www.immoweb.be/en/classified/house/for-sale/bellecourt/7170/20297111,20297111.0,HOUSE,HOUSE,Belgium,Wallonie,Bellecourt,7170,,,4.0,191.0,None,7.0,FOR_SALE,,342201.0,,,,,GOOD,,,,,,,,,,,,,,,None,,,,,False,,,None,
https://www.immoweb.be/en/classified/house/for-sale/opwijk/1745/20297110,20297110.0,HOUSE,HOUSE,Belgium,Flanders,Opwijk,1745,,,3.0,129.0,None,6.0,FOR_SALE,,387000.0,,,,,GOOD,,,,,,,,,,,,,,,None,,,,,False,,,None,
https://www.immoweb.be/en/classified/house/for-sale/opwijk/1745/20297109,20297109.0,HOUSE,HOUSE,Belgium,Flanders,Opwijk,1745,,,3.0,129.0,None,6.0,FOR_SALE,,394000.0,,,,,GOOD,,,,,,,,,,,,,,,None,,,,,False,,,None,
https://www.immoweb.be/en/classified/house/for-sale/oostkamp/8020/20297104,20297104.0,HOUSE,HOUSE,Belgium,Flanders,Oostkamp,8020,51.1099475,3.2263437,3.0,,None,10.0,FOR_SALE,,395000.0,,True,B,,GOOD,2010.0,,,,,,INSTALLED,,,,,,,,None,,,,,False,,,,
https://www.immoweb.be/en/classified/house/for-sale/competa/29754/11122315,11122315.0,HOUSE,HOUSE,Spain,,Competa,29754,,,3.0,211.0,None,17.0,FOR_SALE,,499000.0,590000.0,,None,,AS_NEW,1979.0,,,,True,,HYPER_EQUIPPED,,,,,,,,None,,,True,,False,,,,
https://www.immoweb.be/en/classified/house/for-sale/gingelom/3890/20297103,20297103.0,HOUSE,HOUSE,Belgium,Flanders,Gingelom,3890,50.73275289999999,5.2093759,3.0,156.0,None,8.0,FOR_SALE,,131000.0,,,E,,TO_RENOVATE,1918.0,,,5.0,,,INSTALLED,,,,,,,,None,,,,,False,,,,
https://www.immoweb.be/en/classified/house/for-sale/sint-eloois-winkel/8880/20297090,20297090.0,HOUSE,HOUSE,Belgium,Flanders,Sint-Eloois-Winkel,8880,50.8702811,3.1762643,6.0,410.0,None,15.0,FOR_SALE,,300000.0,,False,D,,,1964.0,,,,,,,,,,,,,,None,,,True,,False,,,None,
https://www.immoweb.be/en/classified/house/for-sale/vinderhoute/9921/20198560,20198560.0,HOUSE,HOUSE,Belgium,Flanders,Vinderhoute,9921,51.08997240000001,3.6433507,3.0,170.0,None,11.0,FOR_SALE,,435000.0,449000.0,False,F,,TO_RENOVATE,1985.0,,,10.0,,20.0,INSTALLED,,,,,,,,,,,True,20.0,False,37.0,True,,
https://www.immoweb.be/en/classified/house/for-sale/elsene/1050/20297084,20297084.0,HOUSE,HOUSE,Belgium,Brussels,Elsene,1050,50.82551369999999,4.3767398,3.0,,None,5.0,FOR_SALE,,787500.0,,,,,,,,,,,,,,,,,,,,None,,,True,11.0,False,,,None,None
https://www.immoweb.be/en/classified/house/for-sale/elsene/1050/20297083,20297083.0,HOUSE,HOUSE,Belgium,Brussels,Elsene,1050,50.82551369999999,4.3767398,3.0,129.0,None,5.0,FOR_SALE,,676500.0,,,A,,,2026.0,,,,,,,,,,,,,,None,,,True,6.0,False,,,None,
https://www.immoweb.be/en/classified/house/for-sale/elsene/1050/20297082,20297082.0,HOUSE,HOUSE,Belgium,Brussels,Elsene,1050,50.82551369999999,4.3767398,3.0,196.0,None,5.0,FOR_SALE,,1257500.0,,,A,,,2026.0,,,,,,,,,,,,,,None,True,260.0,True,11.0,False,,,None,
https://www.immoweb.be/en/classified/house/for-sale/mechelen/2800/20297081,20297081.0,HOUSE,HOUSE,Belgium,Flanders,Mechelen,2800,51.0240088,4.468717,3.0,181.0,None,6.0,FOR_SALE,,661388.0,,,,,,,,,,,,,,,,,,,,None,,,True,11.0,False,,,None,None
https://www.immoweb.be/en/classified/house/for-sale/mechelen/2800/20297078,20297078.0,HOUSE,HOUSE,Belgium,Flanders,Mechelen,2800,51.0240088,4.468717,5.0,199.0,None,9.0,FOR_SALE,,724724.0,,,A,,,,,,,,,,,,,,,,,None,,,True,10.0,False,,,None,None
https://www.immoweb.be/en/classified/house/for-sale/mechelen/2800/20297079,20297079.0,HOUSE,HOUSE,Belgium,Flanders,Mechelen,2800,51.0240088,4.468717,4.0,158.0,None,7.0,FOR_SALE,,545001.0,,,A,,,,,,,,,,,,,,,,,None,,,,,False,,,None,None
https://www.immoweb.be/en/classified/house/for-sale/mechelen/2800/20297080,20297080.0,HOUSE,HOUSE,Belgium,Flanders,Mechelen,2800,51.0240088,4.468717,3.0,160.0,None,7.0,FOR_SALE,,543166.0,,,A,,,,,,,,,,,,,,,,,None,,,True,18.0,False,,,None,None
https://www.immoweb.be/en/classified/house/for-sale/waregem/8790/20297133,20297133.0,HOUSE,HOUSE,Belgium,Flanders,WAREGEM,8790,50.8755934,3.33431,4.0,210.0,None,,FOR_SALE,,365000.0,,,B,,GOOD,1979.0,2.0,,,,,HYPER_EQUIPPED,,,,,,,,None,,,True,,False,,,,
https://www.immoweb.be/en/classified/house/for-sale/sterrebeek/1933/20296452,20296452.0,HOUSE,HOUSE,Belgium,Flanders,STERREBEEK,1933,50.84973900000001,4.508952799999999,4.0,238.0,None,,FOR_SALE,,695000.0,,,B,,,1951.0,2.0,2.0,6.0,,,,,,,,,,,,True,59.0,True,20.0,False,30.0,True,None,
https://www.immoweb.be/en/classified/house/for-sale/habay-la-vieille/6723/20291696,20291696.0,HOUSE,HOUSE,Belgium,Wallonie,HABAY-LA-VIEILLE,6723,49.7232265,5.6218387,3.0,131.0,None,,FOR_SALE,,245000.0,,,C,,GOOD,1957.0,2.0,,,,12.0,SEMI_EQUIPPED,,,,,,,,,,,True,,False,28.0,True,,
https://www.immoweb.be/en/classified/house/for-sale/sleidinge/9940/20291397,20291397.0,HOUSE,HOUSE,Belgium,Flanders,SLEIDINGE,9940,51.1306667,3.647283899999999,3.0,285.0,None,,FOR_SALE,,579000.0,,,C,,GOOD,1988.0,4.0,,,,17.0,INSTALLED,,,,,,,,,,,True,,False,56.0,True,,
https://www.immoweb.be/en/classified/house/for-sale/marchin/4570/20288351,20288351.0,HOUSE,HOUSE,Belgium,Wallonie,Marchin,4570,50.4760982,5.2147404,6.0,355.0,None,31.0,FOR_SALE,,675000.0,,False,E,,GOOD,1800.0,4.0,2.0,15.0,False,8.0,SEMI_EQUIPPED,,,,,,,,,True,10598.0,True,15.0,False,19.0,True,,
https://www.immoweb.be/en/classified/house/for-sale/musson-mussyla-ville/6750/20283736,20283736.0,HOUSE,HOUSE,Belgium,Wallonie,Musson Mussyla-Ville,6750,49.5703432,5.6625969,3.0,180.0,None,,FOR_SALE,,135000.0,,,G,,TO_RENOVATE,1850.0,2.0,2.0,,,12.0,NOT_INSTALLED,,,,,,,,,,,,,False,37.0,True,,
https://www.immoweb.be/en/classified/house/for-sale/saint-leger-meixle-tige/6747/20283710,20283710.0,HOUSE,HOUSE,Belgium,Wallonie,Saint-Léger Meixle-Tige,6747,49.6155358,5.718308899999999,4.0,140.0,None,,FOR_SALE,,180000.0,,,F,,TO_RENOVATE,1850.0,2.0,2.0,,,20.0,NOT_INSTALLED,,,,,,,,,True,450.0,True,20.0,False,16.0,True,,
https://www.immoweb.be/en/classified/house/for-sale/musson/6750/20283699,20283699.0,HOUSE,HOUSE,Belgium,Wallonie,Musson,6750,49.5718429,5.6595137,3.0,120.0,None,,FOR_SALE,,269000.0,,,C,,GOOD,1875.0,4.0,2.0,,,15.0,HYPER_EQUIPPED,,,,,,,,,,,True,40.0,False,48.0,True,,
https://www.immoweb.be/en/classified/house/for-sale/wanze/4520/20280328,20280328.0,HOUSE,HOUSE,Belgium,Wallonie,Wanze,4520,50.532616,5.2153375,3.0,155.0,None,17.0,FOR_SALE,,280000.0,,False,E,,TO_BE_DONE_UP,1960.0,3.0,2.0,8.0,False,12.0,SEMI_EQUIPPED,,,,,,,,,True,516.0,True,,True,28.0,True,,
https://www.immoweb.be/en/classified/house/for-sale/saint-leger-meixle-tige/6747/20283703,20283703.0,HOUSE,HOUSE,Belgium,Wallonie,Saint-Léger Meixle-Tige,6747,49.6155358,5.718308899999999,4.0,292.0,None,,FOR_SALE,,310000.0,,,F,,TO_RENOVATE,1850.0,2.0,2.0,,,,NOT_INSTALLED,,,,,,,,None,True,1000.0,True,20.0,False,,,,
https://www.immoweb.be/en/classified/house/for-sale/berchem/2600/20283458,20283458.0,HOUSE,HOUSE,Belgium,Flanders,BERCHEM,2600,51.1963442,4.4479187,4.0,200.0,None,,FOR_SALE,,489900.0,,,B,,GOOD,1961.0,2.0,2.0,6.0,,21.0,INSTALLED,,,,,,,,,True,65.0,True,8.0,False,30.0,True,,
https://www.immoweb.be/en/classified/house/for-sale/battice/4651/20281109,20281109.0,HOUSE,HOUSE,Belgium,Wallonie,Battice,4651,50.6388386,5.820018699999999,4.0,209.0,None,,FOR_SALE,,549000.0,,False,F,,TO_BE_DONE_UP,1990.0,4.0,1.0,18.0,False,19.0,INSTALLED,,,,,,,,,True,1750.0,True,25.0,True,23.0,True,,
https://www.immoweb.be/en/classified/house/for-sale/hulste/8531/20293974,20293974.0,HOUSE,HOUSE,Belgium,Flanders,HULSTE,8531,50.8825523,3.2741653,4.0,143.0,None,,FOR_SALE,,275000.0,,,E,,TO_BE_DONE_UP,1938.0,2.0,,,,,,,,,,,,,None,True,275.0,,,False,,,None,
https://www.immoweb.be/en/classified/house/for-sale/ronse/9600/20287683,20287683.0,HOUSE,HOUSE,Belgium,Flanders,Ronse,9600,50.7500881,3.5880093,4.0,150.0,None,11.0,FOR_SALE,,180000.0,,False,D,,GOOD,1910.0,,3.0,5.0,,18.0,INSTALLED,,,,,,,,,,,True,46.0,False,12.0,True,,
https://www.immoweb.be/en/classified/house/for-sale/oudenaarde/9700/20286580,20286580.0,HOUSE,HOUSE,Belgium,Flanders,Oudenaarde,9700,50.8484561,3.6092013,2.0,107.0,None,,FOR_SALE,,249000.0,,,B,,GOOD,1930.0,2.0,2.0,4.0,False,,,,,,,,,,,True,1.0,True,1.0,False,49.0,True,None,
https://www.immoweb.be/en/classified/house/for-sale/ouffet/4590/20287719,20287719.0,HOUSE,HOUSE,Belgium,Wallonie,Ouffet,4590,50.4650356,5.4478792,4.0,170.0,None,,FOR_SALE,,399000.0,,True,E,,GOOD,,4.0,1.0,16.0,False,10.0,INSTALLED,,,,,,,,,True,850.0,True,100.0,False,25.0,True,,
https://www.immoweb.be/en/classified/house/for-sale/bonheiden/2820/20290613,20290613.0,HOUSE,HOUSE,Belgium,Flanders,BONHEIDEN,2820,50.9849892,4.6233827,5.0,410.0,None,,FOR_SALE,,828000.0,,,,,GOOD,1910.0,,2.0,33.0,,13.0,INSTALLED,,,,,,,,,True,900.0,True,120.0,False,46.0,True,,
https://www.immoweb.be/en/classified/house/for-sale/haacht/3150/20290611,20290611.0,HOUSE,HOUSE,Belgium,Flanders,HAACHT,3150,50.9849892,4.6233827,5.0,410.0,None,,FOR_SALE,,828000.0,,,,,GOOD,1910.0,,2.0,33.0,,13.0,INSTALLED,,,,,,,,,True,900.0,True,120.0,False,46.0,True,,
https://www.immoweb.be/en/classified/house/for-sale/sint-kruis/8310/20297029,20297029.0,HOUSE,HOUSE,Belgium,Flanders,Sint-Kruis,8310,51.2107065,3.2641409,1.0,60.0,None,5.0,FOR_SALE,,239500.0,,False,A,,GOOD,1978.0,,,,,,INSTALLED,,,,,,,,None,,,True,,False,,,,
https://www.immoweb.be/en/classified/house/for-sale/anderlecht/1070/20296066,20296066.0,HOUSE,HOUSE,Belgium,Brussels,Anderlecht,1070,50.8441943,4.3081833,2.0,125.0,None,,FOR_SALE,,290000.0,,False,G,,TO_RENOVATE,1933.0,2.0,3.0,6.0,False,,NOT_INSTALLED,,,,,,,,,,,,,False,25.0,True,,
https://www.immoweb.be/en/classified/house/for-sale/gentbrugge/9050/20297185,20297185.0,HOUSE,HOUSE,Belgium,Flanders,Gentbrugge,9050,51.0311703,3.763176399999999,2.0,52.0,None,10.0,FOR_SALE,,319000.0,,,C,,GOOD,,,,4.0,,,,,,,,,,,None,,,True,,False,,,None,
https://www.immoweb.be/en/classified/house/for-sale/woluwe-saint-lambert/1200/20295206,20295206.0,HOUSE,HOUSE,Belgium,Brussels,Woluwe-Saint-Lambert,1200,50.8429467,4.4158096,5.0,216.0,None,,FOR_SALE,,625000.0,,False,E,,GOOD,,2.0,3.0,7.0,False,9.0,SEMI_EQUIPPED,,,,,,,,,True,60.0,True,25.0,False,44.0,True,,
https://www.immoweb.be/en/classified/house/for-sale/gent-afsnee/9051/20294410,20294410.0,HOUSE,HOUSE,Belgium,Flanders,Gent Afsnee,9051,51.0300478,3.6717695,4.0,283.0,None,,FOR_SALE,,1350000.0,,,C,,GOOD,,4.0,4.0,,False,24.0,INSTALLED,,,,,,,,,,,True,,False,61.0,True,,
https://www.immoweb.be/en/classified/house/for-sale/herstal/4040/20292115,20292115.0,HOUSE,HOUSE,Belgium,Wallonie,Herstal,4040,50.6676431,5.6310379,3.0,137.0,None,12.0,FOR_SALE,,260000.0,,,D,,GOOD,1936.0,2.0,2.0,6.0,False,27.0,INSTALLED,,,,,,,,,True,39.0,True,,False,19.0,True,,
https://www.immoweb.be/en/classified/house/for-sale/mechelen/2800/20297077,20297077.0,HOUSE,HOUSE,Belgium,Flanders,Mechelen,2800,51.0240088,4.468717,4.0,159.0,None,7.0,FOR_SALE,,531814.0,,,A,,,,,,,,,,,,,,,,,None,,,,,False,,,None,None
https://www.immoweb.be/en/classified/house/for-sale/mechelen/2800/20297076,20297076.0,HOUSE,HOUSE,Belgium,Flanders,Mechelen,2800,51.0240088,4.468717,4.0,170.0,None,9.0,FOR_SALE,,586528.0,,,A,,,,,,,,,,,,,,,,,None,,,True,10.0,False,,,None,None
https://www.immoweb.be/en/classified/house/for-sale/mechelen/2800/20297073,20297073.0,HOUSE,HOUSE,Belgium,Flanders,Mechelen,2800,51.0240088,4.468717,4.0,159.0,None,7.0,FOR_SALE,,540124.0,,,A,,,,,,,,,,,,,,,,,None,,,,,False,,,None,None
https://www.immoweb.be/en/classified/house/for-sale/mechelen/2800/20297074,20297074.0,HOUSE,HOUSE,Belgium,Flanders,Mechelen,2800,51.0240088,4.468717,3.0,160.0,None,7.0,FOR_SALE,,552208.0,,,A,,,,,,,,,,,,,,,,,None,,,True,18.0,False,,,None,None
https://www.immoweb.be/en/classified/house/for-sale/mechelen/2800/20297075,20297075.0,HOUSE,HOUSE,Belgium,Flanders,Mechelen,2800,51.0240088,4.468717,4.0,170.0,None,9.0,FOR_SALE,,577642.0,,,A,,,,,,,,,,,,,,,,,None,,,True,10.0,False,,,None,None
https://www.immoweb.be/en/classified/house/for-sale/staden/8840/20297072,20297072.0,HOUSE,HOUSE,Belgium,Flanders,Staden,8840,50.9713015,3.0176259,4.0,223.0,None,16.0,FOR_SALE,,459000.0,,,A,,GOOD,2015.0,,,,,,INSTALLED,,,,,,,,None,,,True,,False,,,,
https://www.immoweb.be/en/classified/house/for-sale/fl%C3%89nu/7012/20297071,20297071.0,HOUSE,HOUSE,Belgium,Wallonie,FLÉNU,7012,,,2.0,137.0,None,,FOR_SALE,,100000.0,,,F,,TO_RENOVATE,,2.0,,,,,,,,,,,,,None,,,True,,False,,,None,
https://www.immoweb.be/en/classified/house/for-sale/deurne/2100/20297070,20297070.0,HOUSE,HOUSE,Belgium,Flanders,DEURNE,2100,51.232079,4.443283399999999,2.0,90.0,None,,FOR_SALE,,210000.0,,,E,,GOOD,,,,,,,INSTALLED,,,,,,,,,,,True,6.0,False,30.0,True,,
https://www.immoweb.be/en/classified/house/for-sale/merelbeke/9820/20297069,20297069.0,HOUSE,HOUSE,Belgium,Flanders,Merelbeke,9820,50.96695090000001,3.731711,3.0,177.0,None,11.0,FOR_SALE,,230000.0,,,F,,TO_RENOVATE,1960.0,,,,,,,,,,,,,,None,,,,,False,,,None,
https://www.immoweb.be/en/classified/house/for-sale/graty/7830/20297068,20297068.0,HOUSE,HOUSE,Belgium,Wallonie,Graty,7830,50.63963930000001,3.989997499999999,5.0,200.0,None,,FOR_SALE,,650000.0,,,C,,AS_NEW,,3.0,,,True,26.0,,,,,,,,,,True,1700.0,,,False,35.0,True,,
https://www.immoweb.be/en/classified/house/for-sale/mechelen/2800/20297067,20297067.0,HOUSE,HOUSE,Belgium,Flanders,Mechelen,2800,51.0240088,4.468717,3.0,161.0,None,7.0,FOR_SALE,,538470.0,,,A,,,,,,,,,,,,,,,,,None,,,True,18.0,False,,,None,None
https://www.immoweb.be/en/classified/house/for-sale/mechelen/2800/20297066,20297066.0,HOUSE,HOUSE,Belgium,Flanders,Mechelen,2800,51.0240088,4.468717,4.0,158.0,None,7.0,FOR_SALE,,528486.0,,,A,,,,,,,,,,,,,,,,,None,,,,,False,,,None,None
https://www.immoweb.be/en/classified/house/for-sale/mechelen/2800/20297061,20297061.0,HOUSE,HOUSE,Belgium,Flanders,Mechelen,2800,51.0240088,4.468717,4.0,237.0,None,8.0,FOR_SALE,,840860.0,,,A,,,,,,,,,,,,,,,,,None,,,True,16.0,False,,,None,None
https://www.immoweb.be/en/classified/house/for-sale/mechelen/2800/20297060,20297060.0,HOUSE,HOUSE,Belgium,Flanders,Mechelen,2800,51.0240088,4.468717,3.0,183.0,None,7.0,FOR_SALE,,631144.0,,,A,,,,,,,,,,,,,,,,,None,,,True,10.0,False,,,None,None
https://www.immoweb.be/en/classified/house/for-sale/mechelen/2800/20297059,20297059.0,HOUSE,HOUSE,Belgium,Flanders,Mechelen,2800,51.0240088,4.468717,4.0,178.0,None,7.0,FOR_SALE,,613984.0,,,A,,,,,,,,,,,,,,,,,None,,,,,False,,,None,None
https://www.immoweb.be/en/classified/house/for-sale/brugge/8000/20297058,20297058.0,HOUSE,HOUSE,Belgium,Flanders,Brugge,8000,51.2114342,3.2334573,3.0,167.0,None,11.0,FOR_SALE,,695000.0,,,B,,GOOD,1850.0,,,,,,,,,,,,,,None,,,True,,False,,,None,
https://www.immoweb.be/en/classified/house/for-sale/mechelen/2800/20297057,20297057.0,HOUSE,HOUSE,Belgium,Flanders,Mechelen,2800,51.0240088,4.468717,3.0,168.0,None,7.0,FOR_SALE,,579664.0,,,A,,,,,,,,,,,,,,,,,None,,,True,18.0,False,,,None,None
https://www.immoweb.be/en/classified/house/for-sale/mechelen/2800/20297056,20297056.0,HOUSE,HOUSE,Belgium,Flanders,Mechelen,2800,51.0240088,4.468717,4.0,179.0,None,8.0,FOR_SALE,,615700.0,,,A,,,,,,,,,,,,,,,,,None,,,True,10.0,False,,,None,None
https://www.immoweb.be/en/classified/house/for-sale/mechelen/2800/20297055,20297055.0,HOUSE,HOUSE,Belgium,Flanders,Mechelen,2800,51.0240088,4.468717,4.0,173.0,None,7.0,FOR_SALE,,594079.0,,,A,,,,,,,,,,,,,,,,,None,,,,,False,,,None,None
https://www.immoweb.be/en/classified/house/for-sale/mechelen/2800/20297054,20297054.0,HOUSE,HOUSE,Belgium,Flanders,Mechelen,2800,51.0240088,4.468717,3.0,169.0,None,7.0,FOR_SALE,,583096.0,,,A,,,,,,,,,,,,,,,,,None,,,True,18.0,False,,,None,None
https://www.immoweb.be/en/classified/house/for-sale/mechelen/2800/20297053,20297053.0,HOUSE,HOUSE,Belgium,Flanders,Mechelen,2800,51.0240088,4.468717,4.0,173.0,None,7.0,FOR_SALE,,594079.0,,,A,,,,,,,,,,,,,,,,,None,,,,,False,,,None,None
https://www.immoweb.be/en/classified/house/for-sale/mechelen/2800/20297052,20297052.0,HOUSE,HOUSE,Belgium,Flanders,Mechelen,2800,51.0240088,4.468717,4.0,179.0,None,8.0,FOR_SALE,,615700.0,,,A,,,,,,,,,,,,,,,,,None,,,True,10.0,False,,,None,None
https://www.immoweb.be/en/classified/house/for-sale/mechelen/2800/20297051,20297051.0,HOUSE,HOUSE,Belgium,Flanders,Mechelen,2800,51.0240088,4.468717,3.0,168.0,None,7.0,FOR_SALE,,576576.0,,,A,,,,,,,,,,,,,,,,,None,,,True,18.0,False,,,None,None
https://www.immoweb.be/en/classified/house/for-sale/mechelen/2800/20297050,20297050.0,HOUSE,HOUSE,Belgium,Flanders,Mechelen,2800,51.0240088,4.468717,4.0,179.0,None,8.0,FOR_SALE,,615700.0,,,A,,,,,,,,,,,,,,,,,None,,,True,10.0,False,,,None,None
https://www.immoweb.be/en/classified/house/for-sale/mechelen/2800/20297049,20297049.0,HOUSE,HOUSE,Belgium,Flanders,Mechelen,2800,51.0240088,4.468717,4.0,172.0,None,7.0,FOR_SALE,,572748.0,,,A,,,,,,,,,,,,,,,,,None,,,,,False,,,None,None
https://www.immoweb.be/en/classified/house/for-sale/vivegnis/4683/20292114,20292114.0,HOUSE,HOUSE,Belgium,Wallonie,Vivegnis,4683,50.6926068,5.648632699999999,5.0,129.0,None,,FOR_SALE,,349000.0,,,B,,GOOD,2010.0,3.0,2.0,6.0,False,,INSTALLED,,,,,,,,None,True,323.0,True,,False,,,,
https://www.immoweb.be/en/classified/house/for-sale/oupeye/4680/20283308,20283308.0,HOUSE,HOUSE,Belgium,Wallonie,Oupeye,4680,50.6973718,5.6531502,3.0,115.0,None,,FOR_SALE,,164000.0,,False,D,,GOOD,1850.0,3.0,1.0,6.0,False,14.0,SEMI_EQUIPPED,,,,,,,,,True,40.0,True,20.0,True,35.0,True,,
https://www.immoweb.be/en/classified/house/for-sale/ledegem/8880/20287724,20287724.0,HOUSE,HOUSE,Belgium,Flanders,Ledegem,8880,50.8588902,3.1258265,4.0,350.0,None,,FOR_SALE,,199000.0,,,E,,TO_RENOVATE,1965.0,2.0,3.0,,,6.0,SEMI_EQUIPPED,,,,,,,,None,,,True,16.0,False,,,,
https://www.immoweb.be/en/classified/house/for-sale/huy/4500/20294680,20294680.0,HOUSE,HOUSE,Belgium,Wallonie,HUY,4500,50.5281697,5.2508528,3.0,105.0,None,,FOR_SALE,,179000.0,,,G,,GOOD,,3.0,1.0,5.0,,,SEMI_EQUIPPED,,,,,,,,,True,148.0,True,24.0,False,35.0,True,,
https://www.immoweb.be/en/classified/house/for-sale/zelzate/9060/20295332,20295332.0,HOUSE,HOUSE,Belgium,Flanders,ZELZATE,9060,51.2065498,3.8087333,3.0,135.0,None,,FOR_SALE,,319000.0,,,A,,GOOD,2016.0,2.0,,,,,INSTALLED,,,,,,,,,,,True,,False,45.0,True,,
https://www.immoweb.be/en/classified/house/for-sale/grez-doiceau/1390/20295337,20295337.0,HOUSE,HOUSE,Belgium,Wallonie,Grez-Doiceau,1390,50.722395,4.7153937,4.0,133.0,None,,FOR_SALE,,325000.0,,,G,,,1966.0,4.0,2.0,,,13.0,INSTALLED,,,,,,,,None,,,,,False,,,,
https://www.immoweb.be/en/classified/house/for-sale/sint-katelijne-waver/2860/20294794,20294794.0,HOUSE,HOUSE,Belgium,Flanders,SINT-KATELIJNE-WAVER,2860,51.0396948,4.5085279,3.0,124.0,None,,FOR_SALE,,339000.0,,,C,,GOOD,1968.0,2.0,,,,,INSTALLED,,,,,,,,None,,,True,,False,,,,
https://www.immoweb.be/en/classified/house/for-sale/willebroek/2830/20295498,20295498.0,HOUSE,HOUSE,Belgium,Flanders,WILLEBROEK,2830,51.0570752,4.3501238,3.0,170.0,None,,FOR_SALE,,355000.0,,,B,,GOOD,1973.0,,,7.0,,,INSTALLED,,,,,,,,None,True,150.0,,,False,,,,
https://www.immoweb.be/en/classified/house/for-sale/juprelle/4450/20290019,20290019.0,HOUSE,HOUSE,Belgium,Wallonie,Juprelle,4450,50.6894725,5.536823399999999,3.0,125.0,None,,FOR_SALE,,330000.0,,False,D,,GOOD,1966.0,3.0,2.0,8.0,False,15.0,INSTALLED,,,,,,,,,True,563.0,True,53.0,False,25.0,True,,
https://www.immoweb.be/en/classified/house/for-sale/belvaux/5580/20291379,20291379.0,HOUSE,HOUSE,Belgium,Wallonie,Belvaux,5580,50.1069202,5.194164,3.0,166.0,None,,FOR_SALE,,429000.0,,,E,,JUST_RENOVATED,1920.0,4.0,,12.0,,,INSTALLED,,,,,,,,,True,1220.0,True,15.0,False,32.0,True,,
https://www.immoweb.be/en/classified/house/for-sale/knokke-heist/8300/20288786,20288786.0,HOUSE,HOUSE,Belgium,Flanders,Knokke-Heist,8300,51.32338009999999,3.3112852,4.0,188.0,None,16.0,FOR_SALE,,1595000.0,,False,C,,GOOD,1970.0,3.0,2.0,,,,HYPER_EQUIPPED,,,,,,,,None,,,True,,False,,,,
https://www.immoweb.be/en/classified/house/for-sale/knokke-heist/8300/20288811,20288811.0,HOUSE,HOUSE,Belgium,Flanders,Knokke-Heist,8300,51.3210275,3.3010274,4.0,241.0,None,16.0,FOR_SALE,,1700000.0,,True,B,,GOOD,2022.0,4.0,1.0,,,,HYPER_EQUIPPED,,,,,,,,None,,,True,,False,,,,
https://www.immoweb.be/en/classified/house/for-sale/wetteren/9230/20283526,20283526.0,HOUSE,HOUSE,Belgium,Flanders,WETTEREN,9230,51.0056784,3.8824804,2.0,121.0,None,,FOR_SALE,,255000.0,,,F,,GOOD,,3.0,,6.0,False,10.0,INSTALLED,,,,,,,,,True,40.0,True,10.0,False,30.0,True,,
https://www.immoweb.be/en/classified/house/for-sale/la-louviere/7100/20280823,20280823.0,HOUSE,HOUSE,Belgium,Wallonie,La Louvière,7100,50.4723288,4.2023621,3.0,122.0,None,,FOR_SALE,,268000.0,,False,E,,GOOD,1950.0,2.0,2.0,,False,17.0,SEMI_EQUIPPED,,,,,,,,,True,870.0,True,,False,45.0,True,,
https://www.immoweb.be/en/classified/house/for-sale/laarne/9270/20281265,20281265.0,HOUSE,HOUSE,Belgium,Flanders,Laarne,9270,51.0374177,3.9245619,2.0,110.0,None,,FOR_SALE,,349000.0,,,C,,AS_NEW,1930.0,3.0,1.0,4.5,False,15.0,HYPER_EQUIPPED,,,,,,,,,True,600.0,True,,False,32.0,True,,
https://www.immoweb.be/en/classified/house/for-sale/ronse/9600/20280408,20280408.0,HOUSE,HOUSE,Belgium,Flanders,Ronse,9600,50.75604999999999,3.599851999999999,4.0,200.0,None,,FOR_SALE,,389000.0,,False,A,,AS_NEW,2018.0,2.0,2.0,8.5,False,,HYPER_EQUIPPED,,,,,,,,None,True,180.0,True,23.0,False,,,,
https://www.immoweb.be/en/classified/house/for-sale/gilly/6060/20294152,20294152.0,HOUSE,HOUSE,Belgium,Wallonie,GILLY,6060,50.4314115,4.4674013,2.0,100.0,None,,FOR_SALE,,155000.0,,,F,,GOOD,1900.0,2.0,,,,,SEMI_EQUIPPED,,,,,,,,,True,42.0,True,18.0,True,22.0,True,,
https://www.immoweb.be/en/classified/house/for-sale/seraing/4101/20286862,20286862.0,HOUSE,HOUSE,Belgium,Wallonie,Seraing,4101,50.61504979999999,5.4986429,4.0,117.0,None,,FOR_SALE,,215000.0,,False,D,,GOOD,2021.0,2.0,2.0,6.0,False,10.0,SEMI_EQUIPPED,,,,,,,,,True,31.0,True,24.0,False,21.0,True,,
https://www.immoweb.be/en/classified/house/for-sale/roeselare/8800/20290687,20290687.0,HOUSE,HOUSE,Belgium,Flanders,ROESELARE,8800,50.9481829,3.1109998,3.0,164.0,None,,FOR_SALE,,325000.0,,,A,,GOOD,2019.0,3.0,,,,,INSTALLED,,,,,,,,None,True,40.0,True,15.0,False,,,,
https://www.immoweb.be/en/classified/house/for-sale/borgerhout/2140/20288697,20288697.0,HOUSE,HOUSE,Belgium,Flanders,BORGERHOUT,2140,51.2176084,4.4381604,6.0,285.0,None,,FOR_SALE,,379900.0,,,F,,TO_BE_DONE_UP,1965.0,2.0,4.0,6.0,,10.0,INSTALLED,,,,,,,,None,,,True,13.0,False,,,,
https://www.immoweb.be/en/classified/house/for-sale/gits/8830/20287726,20287726.0,HOUSE,HOUSE,Belgium,Flanders,Gits,8830,50.9975052,3.1003835,4.0,334.0,None,22.0,FOR_SALE,,445000.0,,False,B,,GOOD,,,,,,21.0,INSTALLED,,,,,,,,,True,75.0,True,49.0,False,16.0,True,,
https://www.immoweb.be/en/classified/house/for-sale/oetingen/1755/20288899,20288899.0,HOUSE,HOUSE,Belgium,Flanders,OETINGEN,1755,50.7754117,4.0470571,4.0,350.0,None,,FOR_SALE,,560000.0,,,C,,GOOD,,3.0,,15.0,,19.0,INSTALLED,,,,,,,,,True,32.0,True,40.0,False,75.0,True,,
https://www.immoweb.be/en/classified/house/for-sale/ruddervoorde/8020/20297048,20297048.0,HOUSE,HOUSE,Belgium,Flanders,Ruddervoorde,8020,51.0874271,3.1649252,4.0,205.0,None,14.0,FOR_SALE,,584000.0,,,,,,,,,,,13.0,INSTALLED,,,,,,,,,,,,,False,35.0,True,,None
https://www.immoweb.be/en/classified/house/for-sale/eke/9810/20297047,20297047.0,HOUSE,HOUSE,Belgium,Flanders,Eke,9810,50.9562774,3.6345935,3.0,179.0,None,15.0,FOR_SALE,,469000.0,,False,B,,GOOD,2011.0,,,,,,,,,,,,,,None,,,,,False,,,None,
https://www.immoweb.be/en/classified/house/for-sale/brakel/9660/20297037,20297037.0,HOUSE,HOUSE,Belgium,Flanders,Brakel,9660,50.81663820000001,3.7516134,3.0,203.0,None,14.0,FOR_SALE,,445000.0,,,B,,GOOD,2007.0,,2.0,15.0,,12.0,INSTALLED,,,,,,,,,,,,,False,18.0,True,,
https://www.immoweb.be/en/classified/house/for-sale/lierde/9570/20297036,20297036.0,HOUSE,HOUSE,Belgium,Flanders,Lierde,9570,50.7829644,3.8341607,2.0,128.0,None,11.0,FOR_SALE,,250000.0,,,F,,GOOD,1974.0,,,8.0,,9.0,,,,,,,,,,,,,,False,30.0,True,,
https://www.immoweb.be/en/classified/house/for-sale/lokeren/9160/20297035,20297035.0,HOUSE,HOUSE,Belgium,Flanders,Lokeren,9160,51.0985858,4.0051116,4.0,,None,4.0,FOR_SALE,,385000.0,,,B,,GOOD,1964.0,,,,,,,,,,,,,,None,,,,,False,,,None,
https://www.immoweb.be/en/classified/house/for-sale/veldwezelt/3620/20297032,20297032.0,HOUSE,HOUSE,Belgium,Flanders,Veldwezelt,3620,50.8619827,5.6297501,3.0,190.0,None,17.0,FOR_SALE,,359000.0,,False,D,,GOOD,1954.0,,,,True,,,,,,,,,,None,,,True,,False,,,None,
https://www.immoweb.be/en/classified/house/for-sale/sint-kruis/8310/20297029,20297029.0,HOUSE,HOUSE,Belgium,Flanders,Sint-Kruis,8310,51.2107065,3.2641409,1.0,60.0,None,5.0,FOR_SALE,,239500.0,,False,A,,GOOD,1978.0,,,,,,INSTALLED,,,,,,,,None,,,True,,False,,,,
https://www.immoweb.be/en/classified/house/for-sale/wondelgem/9032/20297027,20297027.0,HOUSE,HOUSE,Belgium,Flanders,Wondelgem,9032,51.0920457,3.7032906,5.0,154.0,None,8.0,FOR_SALE,,519000.0,,,A,,GOOD,2017.0,,,,,,INSTALLED,,,,,,,,,,,,,False,40.0,True,,
https://www.immoweb.be/en/classified/house/for-sale/nijlen/2560/20297025,20297025.0,HOUSE,HOUSE,Belgium,Flanders,Nijlen,2560,51.1610121,4.658964099999999,3.0,,None,10.0,FOR_SALE,,415000.0,,,C,,GOOD,1951.0,,,,,,,,,,,,,,None,,,,,False,,,None,
https://www.immoweb.be/en/classified/house/for-sale/gent/9000/20297022,20297022.0,HOUSE,HOUSE,Belgium,Flanders,Gent,9000,51.0424316,3.7097753,0.0,200.0,None,,FOR_SALE,,1085000.0,,False,D,,GOOD,,,3.0,,,,INSTALLED,,,,,,,,None,,,,,False,,,,
https://www.immoweb.be/en/classified/house/for-sale/westende/8434/20297020,20297020.0,HOUSE,HOUSE,Belgium,Flanders,Westende,8434,51.1519765,2.7695246,2.0,42.0,None,10.0,FOR_SALE,,149500.0,,True,F,,TO_BE_DONE_UP,1977.0,,,,,,,,,,,,,,None,,,True,,False,,,None,
https://www.immoweb.be/en/classified/house/for-sale/brugge/8000/20297019,20297019.0,HOUSE,HOUSE,Belgium,Flanders,Brugge,8000,51.2165895,3.2262473,2.0,,None,7.0,FOR_SALE,,278000.0,,False,D,,GOOD,1850.0,,2.0,,,,INSTALLED,,,,,,,,None,,,True,,False,,,,
https://www.immoweb.be/en/classified/house/for-sale/nivelles/1400/20217409,20217409.0,HOUSE,HOUSE,Belgium,Wallonie,NIVELLES,1400,,,3.0,,None,,FOR_SALE,,240000.0,250000.0,,E,,JUST_RENOVATED,,3.0,,,,,NOT_INSTALLED,,,,,,,,None,,,,,False,,,,
https://www.immoweb.be/en/classified/house/for-sale/anderlecht/1070/20297014,20297014.0,HOUSE,HOUSE,Belgium,Brussels,Anderlecht,1070,50.832428,4.2780046,4.0,220.0,None,16.0,FOR_SALE,,695000.0,,False,G,,,1961.0,,2.0,11.0,,9.0,INSTALLED,,,,,,,,,True,900.0,,,False,40.0,True,,
https://www.immoweb.be/en/classified/house/for-sale/kortrijk/8500/20242823,20242823.0,HOUSE,HOUSE,Belgium,Flanders,Kortrijk,8500,,,5.0,250.0,None,15.0,FOR_SALE,,285000.0,296000.0,False,C,,GOOD,,,,,,14.0,INSTALLED,,,,,,,,,,,True,30.0,False,37.0,True,,
https://www.immoweb.be/en/classified/house/for-sale/antwerpen%20%282060%29/2060/20297011,20297011.0,HOUSE,HOUSE,Belgium,Flanders,Antwerpen (2060),2060,51.2237974,4.4328474,3.0,140.0,None,9.0,FOR_SALE,,329000.0,,False,B,,JUST_RENOVATED,,,,,,11.0,INSTALLED,,,,,,,,,,,,,False,26.0,True,,
https://www.immoweb.be/en/classified/house/for-sale/westende/8434/20297020,20297020.0,HOUSE,HOUSE,Belgium,Flanders,Westende,8434,51.1519765,2.7695246,2.0,42.0,None,10.0,FOR_SALE,,149500.0,,True,F,,TO_BE_DONE_UP,1977.0,,,,,,,,,,,,,,None,,,True,,False,,,None,
https://www.immoweb.be/en/classified/house/for-sale/landen/3400/20295586,20295586.0,HOUSE,HOUSE,Belgium,Flanders,Landen,3400,50.7628602,5.042102000000001,3.0,120.0,None,,FOR_SALE,,285000.0,,False,D,,GOOD,1966.0,3.0,2.0,14.0,False,12.0,NOT_INSTALLED,,,,,,,,,True,280.0,True,,False,19.0,True,,
https://www.immoweb.be/en/classified/house/for-sale/gavere/9890/20294397,20294397.0,HOUSE,HOUSE,Belgium,Flanders,Gavere,9890,50.9145933,3.6505555,3.0,120.0,None,,FOR_SALE,,376463.0,,False,None,,AS_NEW,2025.0,3.0,2.0,7.1,False,6.0,HYPER_EQUIPPED,,,,,,,,,True,158.0,True,14.0,False,36.0,True,,
https://www.immoweb.be/en/classified/house/for-sale/gavere/9890/20294389,20294389.0,HOUSE,HOUSE,Belgium,Flanders,Gavere,9890,50.9145933,3.6505555,3.0,153.0,None,,FOR_SALE,,399189.0,,False,None,,AS_NEW,2025.0,2.0,2.0,8.55,False,14.0,HYPER_EQUIPPED,,,,,,,,,True,49.0,True,17.0,False,31.0,True,,
https://www.immoweb.be/en/classified/house/for-sale/gavere/9890/20294398,20294398.0,HOUSE,HOUSE,Belgium,Flanders,Gavere,9890,50.9145933,3.6505555,3.0,153.0,None,,FOR_SALE,,401089.0,,False,None,,AS_NEW,2025.0,2.0,2.0,8.55,False,14.0,HYPER_EQUIPPED,,,,,,,,,True,53.0,True,17.0,False,31.0,True,,
https://www.immoweb.be/en/classified/house/for-sale/ruisbroek/2870/20280682,20280682.0,HOUSE,HOUSE,Belgium,Flanders,RUISBROEK,2870,51.0875686,4.3302482,3.0,148.0,None,,FOR_SALE,,289000.0,,,C,,GOOD,1954.0,2.0,2.0,5.0,,,SEMI_EQUIPPED,,,,,,,,None,True,51.0,True,11.0,False,,,,
https://www.immoweb.be/en/classified/house/for-sale/saint-nicolas/4420/20285982,20285982.0,HOUSE,HOUSE,Belgium,Wallonie,SAINT-NICOLAS,4420,50.6338811,5.519054,2.0,106.0,None,,FOR_SALE,,199000.0,,,C,,JUST_RENOVATED,,2.0,,5.0,,13.0,INSTALLED,,,,,,,,,True,40.0,True,15.0,False,11.0,True,,
https://www.immoweb.be/en/classified/house/for-sale/seraing/4101/20283827,20283827.0,HOUSE,HOUSE,Belgium,Wallonie,Seraing,4101,50.613518,5.4990722,5.0,217.0,None,,FOR_SALE,,360000.0,,False,C,,GOOD,1998.0,2.0,2.0,8.0,True,18.0,INSTALLED,,,,,,,,,True,134.0,True,80.0,False,16.0,True,,
https://www.immoweb.be/en/classified/house/for-sale/wanfercee-baulet/6224/20296623,20296623.0,HOUSE,HOUSE,Belgium,Wallonie,WANFERCÉE-BAULET,6224,50.469516,4.5839696,2.0,100.0,None,,FOR_SALE,,165000.0,,,F,,TO_BE_DONE_UP,,2.0,,,,6.0,SEMI_EQUIPPED,,,,,,,,,,,,,False,40.0,True,,
https://www.immoweb.be/en/classified/house/for-sale/paliseul/6850/20294525,20294525.0,HOUSE,HOUSE,Belgium,Wallonie,PALISEUL,6850,49.8941909,5.1161471,3.0,150.0,None,,FOR_SALE,,165000.0,,,G,,GOOD,1945.0,3.0,,,,,INSTALLED,,,,,,,,,,,,,False,45.0,True,,
https://www.immoweb.be/en/classified/house/for-sale/gilly/6060/20295973,20295973.0,HOUSE,HOUSE,Belgium,Wallonie,GILLY,6060,50.42803319999999,4.4864986,3.0,150.0,None,,FOR_SALE,,195000.0,,,D,,GOOD,,3.0,,,,11.0,SEMI_EQUIPPED,,,,,,,,,True,326.0,,,False,35.0,True,,
https://www.immoweb.be/en/classified/house/for-sale/willebroek/2830/20295499,20295499.0,HOUSE,HOUSE,Belgium,Flanders,WILLEBROEK,2830,51.0698452,4.35516,2.0,118.0,None,,FOR_SALE,,205000.0,,,D,,TO_RENOVATE,1918.0,2.0,,,,,SEMI_EQUIPPED,,,,,,,,None,True,63.0,,,False,,,,
https://www.immoweb.be/en/classified/house/for-sale/gistel/8470/20294255,20294255.0,HOUSE,HOUSE,Belgium,Flanders,Gistel,8470,51.1544521,2.9683813,5.0,168.0,None,14.0,FOR_SALE,,259000.0,,,F,,GOOD,,,,,,15.0,,,,,,,,,,True,260.0,,,False,31.0,True,,
https://www.immoweb.be/en/classified/house/for-sale/tielt-8700/8700/20294186,20294186.0,HOUSE,HOUSE,Belgium,Flanders,Tielt (8700),8700,50.99723770000001,3.3163082,5.0,216.0,None,14.0,FOR_SALE,,325000.0,,False,C,,GOOD,1969.0,,,,,,INSTALLED,,,,,,,,None,,,,,False,,,,
https://www.immoweb.be/en/classified/house/for-sale/halle/1500/20295510,20295510.0,HOUSE,HOUSE,Belgium,Flanders,HALLE,1500,50.7604731,4.200718,6.0,292.0,None,,FOR_SALE,,689000.0,,,C,,GOOD,1996.0,4.0,3.0,12.0,,26.0,INSTALLED,,,,,,,,,True,1050.0,True,25.0,False,30.0,True,,
https://www.immoweb.be/en/classified/house/for-sale/bredene/8450/20289668,20289668.0,HOUSE,HOUSE,Belgium,Flanders,Bredene,8450,51.2227027,2.9592906,4.0,184.0,None,1.0,FOR_SALE,,295000.0,,,B,,AS_NEW,1936.0,2.0,2.0,6.0,,15.0,,,,,,,,,,True,45.0,,,False,35.0,True,,
https://www.immoweb.be/en/classified/house/for-sale/galmaarden/1570/20289991,20289991.0,HOUSE,HOUSE,Belgium,Flanders,Galmaarden,1570,50.740699,3.9926,3.0,282.0,None,,FOR_SALE,,475000.0,,False,C,,AS_NEW,1850.0,4.0,2.0,,False,29.0,HYPER_EQUIPPED,,,,,,,,,True,419.0,True,,False,40.0,True,,
https://www.immoweb.be/en/classified/house/for-sale/saint-leger/6747/20283720,20283720.0,HOUSE,HOUSE,Belgium,Wallonie,Saint-Léger,6747,49.6085956,5.633838799999999,1.0,154.0,None,,FOR_SALE,,250000.0,,,D,,TO_RENOVATE,2001.0,3.0,,16.0,,16.0,,,,,,,,,,True,1010.0,True,,False,19.0,True,,
https://www.immoweb.be/en/classified/house/for-sale/aubange/6790/20283748,20283748.0,HOUSE,HOUSE,Belgium,Wallonie,Aubange,6790,49.5641215,5.8176311,3.0,130.0,None,,FOR_SALE,,290000.0,,,G,,TO_BE_DONE_UP,,4.0,2.0,,,16.0,NOT_INSTALLED,,,,,,,,,True,380.0,True,10.0,False,13.0,True,,
https://www.immoweb.be/en/classified/house/for-sale/izegem/8870/10828175,10828175.0,HOUSE,HOUSE,Belgium,Flanders,Izegem,8870,50.9233212,3.1994939,3.0,134.0,None,12.0,FOR_SALE,,143500.0,,False,F,,TO_RENOVATE,1950.0,,,,,,,,,,,,,,None,,,,,False,,,None,
https://www.immoweb.be/en/classified/house/for-sale/izegem/8870/20297004,20297004.0,HOUSE,HOUSE,Belgium,Flanders,Izegem,8870,50.90289740000001,3.1929983,3.0,170.0,None,12.0,FOR_SALE,,235000.0,,,E,,TO_RENOVATE,1964.0,,,8.0,,14.0,INSTALLED,,,,,,,,,,,True,28.0,False,15.0,True,,
https://www.immoweb.be/en/classified/house/for-sale/menen/8930/20297003,20297003.0,HOUSE,HOUSE,Belgium,Flanders,Menen,8930,50.79832529999999,3.1157862,4.0,160.0,None,8.0,FOR_SALE,,99000.0,,,E,,TO_BE_DONE_UP,,,,4.0,,15.0,,,,,,,,,,,,,,False,30.0,True,,
https://www.immoweb.be/en/classified/house/for-sale/handzame/8610/20296999,20296999.0,HOUSE,HOUSE,Belgium,Flanders,Handzame,8610,51.0258883,3.0042186,3.0,,None,8.0,FOR_SALE,,400000.0,,False,A,,GOOD,,,,,,,HYPER_EQUIPPED,,,,,,,,None,,,,,False,,,,
https://www.immoweb.be/en/classified/house/for-sale/rollegem/8510/20297002,20297002.0,HOUSE,HOUSE,Belgium,Flanders,Rollegem,8510,50.7709222,3.2604545,3.0,,None,10.0,FOR_SALE,,482141.0,,False,A,,GOOD,,,,,,,HYPER_EQUIPPED,,,,,,,,None,,,,,False,,,,
https://www.immoweb.be/en/classified/house/for-sale/roeselare/8800/20297000,20297000.0,HOUSE,HOUSE,Belgium,Flanders,Roeselare,8800,50.9467456,3.1096059,5.0,150.0,None,13.0,FOR_SALE,,324311.0,,False,A,,GOOD,,,,,,,HYPER_EQUIPPED,,,,,,,,None,,,True,,False,,,,
https://www.immoweb.be/en/classified/house/for-sale/kortrijk/8500/20296998,20296998.0,HOUSE,HOUSE,Belgium,Flanders,Kortrijk,8500,50.8017371,3.2416578,4.0,,None,10.0,FOR_SALE,,642259.0,,False,A,,GOOD,,,,,,,HYPER_EQUIPPED,,,,,,,,None,,,,,False,,,,
https://www.immoweb.be/en/classified/house/for-sale/meulebeke/8760/20296997,20296997.0,HOUSE,HOUSE,Belgium,Flanders,Meulebeke,8760,50.9458789,3.2879829,3.0,,None,10.0,FOR_SALE,,355300.0,,False,A,,GOOD,,,,,,,INSTALLED,,,,,,,,None,,,,,False,,,,
https://www.immoweb.be/en/classified/house/for-sale/wontergem/9800/20296995,20296995.0,HOUSE,HOUSE,Belgium,Flanders,Wontergem,9800,50.9813126,3.4453927,3.0,,None,9.0,FOR_SALE,,358358.0,,False,A,,GOOD,,,,,,,HYPER_EQUIPPED,,,,,,,,None,,,True,,False,,,,
https://www.immoweb.be/en/classified/house/for-sale/oostnieuwkerke/8840/20296993,20296993.0,HOUSE,HOUSE,Belgium,Flanders,Oostnieuwkerke,8840,50.9434935,3.0586331,3.0,,None,11.0,FOR_SALE,,622998.0,,False,A,,GOOD,,,,,,,HYPER_EQUIPPED,,,,,,,,None,,,,,False,,,,
https://www.immoweb.be/en/classified/house/for-sale/zwevezele/8750/20296996,20296996.0,HOUSE,HOUSE,Belgium,Flanders,Zwevezele,8750,51.044949,3.224998,3.0,,None,4.0,FOR_SALE,,474195.0,,False,,,GOOD,,,,,,,,,,,,,,,None,,,,,False,,,None,
https://www.immoweb.be/en/classified/house/for-sale/moerzeke/9220/20296991,20296991.0,HOUSE,HOUSE,Belgium,Flanders,Moerzeke,9220,51.0676656,4.1522994,4.0,221.0,None,20.0,FOR_SALE,,529000.0,,,C,,GOOD,1979.0,,,,,,,,,,,,,,None,,,True,,False,,,None,
https://www.immoweb.be/en/classified/house/for-sale/meulebeke/8760/20296989,20296989.0,HOUSE,HOUSE,Belgium,Flanders,Meulebeke,8760,50.94226099999999,3.283814,4.0,188.0,None,12.0,FOR_SALE,,388300.0,,,A,,GOOD,,,,,,,,,,,,,,,None,,,True,,False,,,None,
https://www.immoweb.be/en/classified/house/for-sale/meulebeke/8760/20296987,20296987.0,HOUSE,HOUSE,Belgium,Flanders,Meulebeke,8760,50.942209,3.283763,4.0,175.0,None,12.0,FOR_SALE,,414600.0,,,A,,GOOD,,,,,,,,,,,,,,,None,,,True,,False,,,None,
https://www.immoweb.be/en/classified/house/for-sale/meulebeke/8760/20296986,20296986.0,HOUSE,HOUSE,Belgium,Flanders,Meulebeke,8760,50.942303,3.283905,4.0,189.0,None,12.0,FOR_SALE,,398700.0,,,A,,GOOD,,,,,,,,,,,,,,,None,,,True,,False,,,None,
https://www.immoweb.be/en/classified/house/for-sale/koekelare/8680/20296983,20296983.0,HOUSE,HOUSE,Belgium,Flanders,Koekelare,8680,51.0908319,2.9940158,5.0,230.0,None,,FOR_SALE,,179000.0,,False,,,TO_RENOVATE,1964.0,,,,False,,INSTALLED,,,,,,,,None,,,,,False,,,,
https://www.immoweb.be/en/classified/house/for-sale/gent/9000/20296980,20296980.0,HOUSE,HOUSE,Belgium,Flanders,Gent,9000,51.0424316,3.7097753,0.0,200.0,None,,FOR_SALE,,1085000.0,,False,D,,GOOD,,,3.0,,,,INSTALLED,,,,,,,,None,,,,,False,,,,
https://www.immoweb.be/en/classified/house/for-sale/gent/9000/20296981,20296981.0,HOUSE,HOUSE,Belgium,Flanders,Gent,9000,51.0591419,3.695633,2.0,79.0,None,7.0,FOR_SALE,,225000.0,,False,D,,TO_BE_DONE_UP,1918.0,,,,,,INSTALLED,,,,,,,,None,,,,,False,,,,
https://www.immoweb.be/en/classified/house/for-sale/lebbeke/9280/20296979,20296979.0,HOUSE,HOUSE,Belgium,Flanders,Lebbeke,9280,50.9863299,4.1506222,2.0,150.0,None,15.0,FOR_SALE,,365000.0,,,A,,GOOD,1960.0,,,4.0,,8.0,,,,,,,,,None,,,True,20.0,False,,,,
https://www.immoweb.be/en/classified/house/for-sale/lievegem/9930/20296978,20296978.0,HOUSE,HOUSE,Belgium,Flanders,LIEVEGEM,9930,51.1166151,3.5741445,3.0,158.0,None,,FOR_SALE,,335000.0,,,D,,GOOD,1958.0,4.0,,,,,,,,,,,,,,,,True,,False,37.0,True,None,
https://www.immoweb.be/en/classified/house/for-sale/desselgem/8792/20296976,20296976.0,HOUSE,HOUSE,Belgium,Flanders,Desselgem,8792,50.8798411,3.3587144,2.0,175.0,None,10.0,FOR_SALE,,247500.0,,False,F,,,1957.0,2.0,1.0,,,,,,,,,,,,None,,,,,False,,,None,
https://www.immoweb.be/en/classified/house/for-sale/gits/8830/20296974,20296974.0,HOUSE,HOUSE,Belgium,Flanders,Gits,8830,50.9980565,3.0988722,3.0,,None,12.0,FOR_SALE,,424900.0,,,,,AS_NEW,,,,,,,,,,,,,,,None,,,,,False,,,None,
https://www.immoweb.be/en/classified/house/for-sale/geraardsbergen/9500/20296973,20296973.0,HOUSE,HOUSE,Belgium,Flanders,Geraardsbergen,9500,50.78822599999999,3.9220529,3.0,,None,11.0,FOR_SALE,,391220.0,,,,,AS_NEW,,,,,,,,,,,,,,,None,,,,,False,,,None,
https://www.immoweb.be/en/classified/house/for-sale/geraardsbergen/9500/20296972,20296972.0,HOUSE,HOUSE,Belgium,Flanders,Geraardsbergen,9500,50.78822599999999,3.9220529,3.0,,None,12.0,FOR_SALE,,556695.0,,,,,AS_NEW,,,,,,,,,,,,,,,None,,,,,False,,,None,
https://www.immoweb.be/en/classified/house/for-sale/liege/4000/20285737,20285737.0,HOUSE,HOUSE,Belgium,Wallonie,Liège,4000,50.61821260000001,5.5957523,3.0,88.0,None,12.0,FOR_SALE,,159000.0,,,G,,TO_RENOVATE,1930.0,3.0,2.0,4.0,False,12.0,NOT_INSTALLED,,,,,,,,None,True,135.0,True,,False,,,,
https://www.immoweb.be/en/classified/house/for-sale/sint-lievens-houtem/9520/20286826,20286826.0,HOUSE,HOUSE,Belgium,Flanders,Sint-Lievens-Houtem,9520,50.9266415,3.8860345,4.0,183.0,None,,FOR_SALE,,249000.0,,False,F,,TO_RENOVATE,1900.0,4.0,1.0,14.0,False,26.0,SEMI_EQUIPPED,,,,,,,,,True,700.0,True,,False,30.0,True,,
https://www.immoweb.be/en/classified/house/for-sale/gent/9040/20289031,20289031.0,HOUSE,HOUSE,Belgium,Flanders,GENT,9040,51.063728,3.758044999999999,4.0,144.0,None,,FOR_SALE,,295000.0,,,E,,TO_RENOVATE,,2.0,,,,24.0,SEMI_EQUIPPED,,,,,,,,,,,True,18.0,False,23.0,True,,
https://www.immoweb.be/en/classified/house/for-sale/ledeberg/9050/20287022,20287022.0,HOUSE,HOUSE,Belgium,Flanders,Ledeberg,9050,51.0389421,3.7428395,3.0,90.0,None,11.0,FOR_SALE,,339000.0,,True,B,,JUST_RENOVATED,,,,,,12.0,,,,,,,,,,,,True,14.0,False,12.0,True,,
https://www.immoweb.be/en/classified/house/for-sale/antwerpen/2060/20288700,20288700.0,HOUSE,HOUSE,Belgium,Flanders,ANTWERPEN,2060,51.2176084,4.4381604,6.0,285.0,None,,FOR_SALE,,379900.0,,,F,,TO_BE_DONE_UP,1965.0,2.0,2.0,6.0,,10.0,INSTALLED,,,,,,,,,,,True,13.0,False,26.0,True,,
https://www.immoweb.be/en/classified/house/for-sale/evergem/9940/20287762,20287762.0,HOUSE,HOUSE,Belgium,Flanders,Evergem,9940,51.1591499,3.7321251,4.0,150.0,None,15.0,FOR_SALE,,415000.0,,,C,,GOOD,1981.0,,,,,8.0,INSTALLED,,,,,,,,None,,,True,,False,,,,
https://www.immoweb.be/en/classified/house/for-sale/flobecq/7880/20288872,20288872.0,HOUSE,HOUSE,Belgium,Wallonie,FLOBECQ,7880,50.764247,3.722272499999999,5.0,206.0,None,,FOR_SALE,,475000.0,,,D,,GOOD,1980.0,4.0,1.0,15.0,,14.0,INSTALLED,,,,,,,,,,,,,True,35.0,True,,
https://www.immoweb.be/en/classified/house/for-sale/strombeek-bever/1853/20284814,20284814.0,HOUSE,HOUSE,Belgium,Flanders,STROMBEEK-BEVER,1853,50.908027,4.348908,4.0,141.0,None,,FOR_SALE,,499000.0,,,E,,TO_RENOVATE,1964.0,3.0,,,,22.0,SEMI_EQUIPPED,,,,,,,,,,,True,,False,35.0,True,,
https://www.immoweb.be/en/classified/house/for-sale/gavere/9890/20293750,20293750.0,HOUSE,HOUSE,Belgium,Flanders,Gavere,9890,50.93024399999999,3.6619835,3.0,171.0,None,,FOR_SALE,,365000.0,,False,A,,AS_NEW,2021.0,2.0,,,False,15.0,HYPER_EQUIPPED,,,,,,,,,True,15.0,True,9.0,False,22.0,True,,
https://www.immoweb.be/en/classified/house/for-sale/gavere/9890/20293743,20293743.0,HOUSE,HOUSE,Belgium,Flanders,Gavere,9890,50.93024399999999,3.6619835,3.0,174.0,None,,FOR_SALE,,370000.0,,False,A,,AS_NEW,2021.0,2.0,,,False,15.0,HYPER_EQUIPPED,,,,,,,,,True,15.0,True,9.0,False,22.0,True,,
https://www.immoweb.be/en/classified/house/for-sale/gavere/9890/20293751,20293751.0,HOUSE,HOUSE,Belgium,Flanders,Gavere,9890,50.93024399999999,3.6619835,3.0,176.0,None,,FOR_SALE,,375000.0,,False,A,,AS_NEW,2021.0,2.0,,,False,17.0,HYPER_EQUIPPED,,,,,,,,,True,15.0,True,9.0,False,24.0,True,,
https://www.immoweb.be/en/classified/house/for-sale/gavere/9890/20293747,20293747.0,HOUSE,HOUSE,Belgium,Flanders,Gavere,9890,50.93024399999999,3.6619835,3.0,174.0,None,,FOR_SALE,,376000.0,,False,A,,AS_NEW,2021.0,3.0,,,False,14.0,HYPER_EQUIPPED,,,,,,,,,True,15.0,True,9.0,False,25.0,True,,
https://www.immoweb.be/en/classified/house/for-sale/gavere/9890/20293772,20293772.0,HOUSE,HOUSE,Belgium,Flanders,Gavere,9890,50.93024399999999,3.6619835,3.0,197.0,None,,FOR_SALE,,397000.0,,False,A,,AS_NEW,2021.0,3.0,,,False,16.0,HYPER_EQUIPPED,,,,,,,,,True,16.0,True,10.0,False,25.0,True,,
https://www.immoweb.be/en/classified/house/for-sale/gent/9000/20296981,20296981.0,HOUSE,HOUSE,Belgium,Flanders,Gent,9000,51.0591419,3.695633,2.0,79.0,None,7.0,FOR_SALE,,225000.0,,False,D,,TO_BE_DONE_UP,1918.0,,,,,,INSTALLED,,,,,,,,None,,,,,False,,,,
https://www.immoweb.be/en/classified/house/for-sale/antwerpen-2060/2060/20297011,20297011.0,HOUSE,HOUSE,Belgium,Flanders,Antwerpen (2060),2060,51.2237974,4.4328474,3.0,140.0,None,9.0,FOR_SALE,,329000.0,,False,B,,JUST_RENOVATED,,,,,,11.0,INSTALLED,,,,,,,,,,,,,False,26.0,True,,
https://www.immoweb.be/en/classified/house/for-sale/gent/9000/20297144,20297144.0,HOUSE,HOUSE,Belgium,Flanders,Gent,9000,51.0657241,3.6991137,3.0,225.0,None,10.0,FOR_SALE,,407000.0,,False,D,,TO_BE_DONE_UP,1918.0,,,8.0,,,INSTALLED,,,,,,,,None,,,,,False,,,,
https://www.immoweb.be/en/classified/house/for-sale/gent/9051/20295544,20295544.0,HOUSE,HOUSE,Belgium,Flanders,Gent,9051,51.03017759999999,3.6719295,3.0,189.0,None,1.0,FOR_SALE,,990000.0,,,E,,AS_NEW,1977.0,4.0,,,,,,,,,,,,,None,,,True,,False,,,None,
https://www.immoweb.be/en/classified/house/for-sale/wavre/1300/20164966,20164966.0,HOUSE,HOUSE,Belgium,Wallonie,WAVRE,1300,50.7127006,4.6002622,2.0,100.0,None,,FOR_SALE,,289000.0,299000.0,,D,,TO_RENOVATE,1918.0,3.0,1.0,10.0,,11.0,SEMI_EQUIPPED,,,,,,,,,True,190.0,True,7.0,False,31.0,True,,
https://www.immoweb.be/en/classified/house/for-sale/bierges/1301/20161776,20161776.0,HOUSE,HOUSE,Belgium,Wallonie,BIERGES,1301,50.7127006,4.6002622,2.0,100.0,None,,FOR_SALE,,289000.0,299000.0,False,D,,TO_RENOVATE,1918.0,3.0,1.0,10.0,False,11.0,SEMI_EQUIPPED,,,,,,,,,True,190.0,True,7.0,False,31.0,True,,
https://www.immoweb.be/en/classified/house/for-sale/gits/8830/20296971,20296971.0,HOUSE,HOUSE,Belgium,Flanders,Gits,8830,50.9980565,3.0988722,3.0,,None,11.0,FOR_SALE,,393804.0,,,,,AS_NEW,,,,,,,,,,,,,,,None,,,,,False,,,None,
https://www.immoweb.be/en/classified/house/for-sale/gits/8830/20296970,20296970.0,HOUSE,HOUSE,Belgium,Flanders,Gits,8830,50.9980565,3.0988722,3.0,,None,12.0,FOR_SALE,,392709.0,,,,,AS_NEW,,,,,,,,,,,,,,,None,,,,,False,,,None,
https://www.immoweb.be/en/classified/house/for-sale/gits/8830/20296969,20296969.0,HOUSE,HOUSE,Belgium,Flanders,Gits,8830,50.9980565,3.0988722,3.0,,None,11.0,FOR_SALE,,388900.0,,,,,AS_NEW,,,,,,,,,,,,,,,None,,,,,False,,,None,
https://www.immoweb.be/en/classified/house/for-sale/sint-amandsberg/9040/20296958,20296958.0,HOUSE,HOUSE,Belgium,Flanders,Sint-Amandsberg,9040,51.0604378,3.755017799999999,0.0,234.0,None,10.0,FOR_SALE,,420000.0,,False,D,,GOOD,1936.0,,,,,,,,,,,,,,None,True,130.0,True,8.0,False,,,None,
https://www.immoweb.be/en/classified/house/for-sale/lede/9340/20296955,20296955.0,HOUSE,HOUSE,Belgium,Flanders,Lede,9340,50.9525645,3.8903828,3.0,,None,13.0,FOR_SALE,,480290.0,,False,,,GOOD,,,,,,,,,,,,,,,None,True,895.0,,,False,,,None,
https://www.immoweb.be/en/classified/house/for-sale/lede/9340/20296957,20296957.0,HOUSE,HOUSE,Belgium,Flanders,Lede,9340,50.9525645,3.8903828,3.0,209.0,None,14.0,FOR_SALE,,469523.0,,False,,,GOOD,,,,,,,,,,,,,,,None,True,770.0,,,False,,,None,
https://www.immoweb.be/en/classified/house/for-sale/aalter/9880/20133215,20133215.0,HOUSE,HOUSE,Belgium,Flanders,Aalter,9880,51.07294400000001,3.465725,5.0,590.0,None,5.0,FOR_SALE,,785000.0,850000.0,False,F,,,1982.0,,,,,,INSTALLED,,,,,,,,None,,,,,False,,,,
https://www.immoweb.be/en/classified/house/for-sale/gent/9000/20296944,20296944.0,HOUSE,HOUSE,Belgium,Flanders,Gent,9000,51.0343832,3.727948399999999,3.0,125.0,None,10.0,FOR_SALE,,379000.0,,,D,,TO_RENOVATE,1918.0,,,,,,INSTALLED,,,,,,,,None,,,True,,False,,,,
https://www.immoweb.be/en/classified/house/for-sale/oostakker/9041/20296943,20296943.0,HOUSE,HOUSE,Belgium,Flanders,Oostakker,9041,51.0729055,3.8016655,3.0,210.0,None,13.0,FOR_SALE,,698000.0,,,A,,GOOD,2021.0,,,,,15.0,INSTALLED,,,,,,,,,True,500.0,True,40.0,False,42.0,True,,
https://www.immoweb.be/en/classified/house/for-sale/destelbergen/9070/20296941,20296941.0,HOUSE,HOUSE,Belgium,Flanders,Destelbergen,9070,51.0729055,3.8016655,3.0,210.0,None,13.0,FOR_SALE,,698000.0,,,A,,GOOD,2021.0,,,,,15.0,INSTALLED,,,,,,,,,True,500.0,True,40.0,False,42.0,True,,
https://www.immoweb.be/en/classified/house/for-sale/ruiselede/8755/20296934,20296934.0,HOUSE,HOUSE,Belgium,Flanders,Ruiselede,8755,51.0427715,3.3924412,3.0,208.0,None,11.0,FOR_SALE,,285000.0,,,F,,TO_RENOVATE,,,,,,,,,,,,,,,None,,,,,False,,,None,
https://www.immoweb.be/en/classified/house/for-sale/asper/9890/20296932,20296932.0,HOUSE,HOUSE,Belgium,Flanders,Asper,9890,50.9204616,3.6491487,3.0,,None,6.0,FOR_SALE,,487518.0,,,A,,,2023.0,,,,,,,,,,,,,,None,True,416.0,,,False,,,None,
https://www.immoweb.be/en/classified/house/for-sale/berendrecht/2040/20296919,20296919.0,HOUSE,HOUSE,Belgium,Flanders,Berendrecht,2040,51.34838569999999,4.325404499999999,3.0,237.0,None,15.0,FOR_SALE,,395000.0,,,C,,GOOD,1899.0,,,,,43.0,INSTALLED,,,,,,,,,True,384.0,,,False,41.0,True,,
https://www.immoweb.be/en/classified/house/for-sale/oostrozebeke/8780/20286807,20286807.0,HOUSE,HOUSE,Belgium,Flanders,Oostrozebeke,8780,50.9230923,3.3392459,3.0,194.0,None,14.0,FOR_SALE,,249000.0,,,B,,GOOD,,,,,,,INSTALLED,,,,,,,,None,,,True,,False,,,,
https://www.immoweb.be/en/classified/house/for-sale/quaregnon/7390/20296907,20296907.0,HOUSE,HOUSE,Belgium,Wallonie,QUAREGNON,7390,,,3.0,134.0,None,,FOR_SALE,,135000.0,,,C,,,,2.0,,,,,,,,,,,,,None,,,True,,False,,,None,
https://www.immoweb.be/en/classified/house/for-sale/bekkevoort/3460/20296906,20296906.0,HOUSE,HOUSE,Belgium,Flanders,Bekkevoort,3460,50.9497288,4.9539548,2.0,171.0,None,10.0,FOR_SALE,,349000.0,,,F,,TO_RENOVATE,1968.0,,,11.0,,8.0,SEMI_EQUIPPED,,,,,,,,,,,True,20.0,False,47.0,True,,
https://www.immoweb.be/en/classified/house/for-sale/zandvliet/2040/20292001,20292001.0,HOUSE,HOUSE,Belgium,Flanders,Zandvliet,2040,51.3581101,4.3219276,3.0,201.0,None,15.0,FOR_SALE,,295000.0,,,D,,GOOD,1954.0,,,,,18.0,INSTALLED,,,,,,,,,,,,,False,36.0,True,,
https://www.immoweb.be/en/classified/house/for-sale/huise/9750/20291318,20291318.0,HOUSE,HOUSE,Belgium,Flanders,Huise,9750,50.90027019999999,3.588867,3.0,209.0,None,,FOR_SALE,,450000.0,,False,D,,GOOD,,4.0,1.0,7.7,False,,INSTALLED,,,,,,,,None,True,140.0,True,33.0,False,,,,
https://www.immoweb.be/en/classified/house/for-sale/berendrecht/2040/20285253,20285253.0,HOUSE,HOUSE,Belgium,Flanders,Berendrecht,2040,51.3468746,4.3202678,3.0,152.0,None,12.0,FOR_SALE,,275000.0,,,E,,TO_RENOVATE,1955.0,,,,,10.0,INSTALLED,,,,,,,,,True,751.0,,,False,30.0,True,,
https://www.immoweb.be/en/classified/house/for-sale/gent/9000/20296303,20296303.0,HOUSE,HOUSE,Belgium,Flanders,GENT,9000,51.0737986,3.7092764,2.0,107.0,None,,FOR_SALE,,209000.0,,,D,,TO_BE_DONE_UP,1932.0,2.0,,,,,SEMI_EQUIPPED,,,,,,,,None,,,,,False,,,,
https://www.immoweb.be/en/classified/house/for-sale/lochristi/9080/20296304,20296304.0,HOUSE,HOUSE,Belgium,Flanders,LOCHRISTI,9080,51.1043152,3.8265002,3.0,160.0,None,,FOR_SALE,,345000.0,,,F,,TO_RENOVATE,1974.0,3.0,,,,,SEMI_EQUIPPED,,,,,,,,None,,,True,,True,,,,
https://www.immoweb.be/en/classified/house/for-sale/geraardsbergen/9500/20296697,20296697.0,HOUSE,HOUSE,Belgium,Flanders,GERAARDSBERGEN,9500,50.7648018,3.8554943,4.0,185.0,None,,FOR_SALE,,385000.0,,,B,,GOOD,,,,10.0,,26.0,INSTALLED,,,,,,,,,,,True,60.0,False,35.0,True,,
https://www.immoweb.be/en/classified/house/for-sale/brakel/9660/20290859,20290859.0,HOUSE,HOUSE,Belgium,Flanders,Brakel,9660,50.7890853,3.7703913,3.0,150.0,None,16.0,FOR_SALE,,250000.0,,,F,,TO_RENOVATE,1959.0,,,6.0,,15.0,,,,,,,,,,,,,,False,32.0,True,,
https://www.immoweb.be/en/classified/house/for-sale/grace-hollogne/4460/20291438,20291438.0,HOUSE,HOUSE,Belgium,Wallonie,GRÂCE-HOLLOGNE,4460,50.6308411,5.4693571,3.0,126.0,None,,FOR_SALE,,285000.0,,,D,,GOOD,,3.0,,6.0,,15.0,INSTALLED,,,,,,,,,True,250.0,True,72.0,False,40.0,True,,
https://www.immoweb.be/en/classified/house/for-sale/kontich/2550/20290852,20290852.0,HOUSE,HOUSE,Belgium,Flanders,Kontich,2550,51.1304177,4.4253922,4.0,195.0,None,18.0,FOR_SALE,,695000.0,,False,A,,GOOD,2015.0,,,,,11.0,,,,,,,,,,,,True,23.0,False,54.0,True,,
https://www.immoweb.be/en/classified/house/for-sale/awans/4340/20290618,20290618.0,HOUSE,HOUSE,Belgium,Wallonie,Awans,4340,50.6759758,5.4803526,5.0,295.0,None,,FOR_SALE,,699000.0,,False,D,,AS_NEW,,4.0,1.0,10.0,False,17.0,INSTALLED,,,,,,,,,True,324.0,True,40.0,False,38.0,True,,
https://www.immoweb.be/en/classified/house/for-sale/seraing/4101/20295403,20295403.0,HOUSE,HOUSE,Belgium,Wallonie,Seraing,4101,50.6152285,5.486290299999999,4.0,171.0,None,,FOR_SALE,,199000.0,,False,None,,GOOD,2022.0,3.0,2.0,6.0,False,32.0,INSTALLED,,,,,,,,,True,220.0,,,False,16.0,True,,
https://www.immoweb.be/en/classified/house/for-sale/seraing/4101/20282979,20282979.0,HOUSE,HOUSE,Belgium,Wallonie,Seraing,4101,50.6164912,5.5004103,5.0,140.0,None,,FOR_SALE,,129900.0,,False,E,,TO_BE_DONE_UP,1900.0,2.0,3.0,10.0,False,12.0,INSTALLED,,,,,,,,,,,,,False,19.0,True,,
https://www.immoweb.be/en/classified/house/for-sale/virton-bleid/6760/20283745,20283745.0,HOUSE,HOUSE,Belgium,Wallonie,Virton Bleid,6760,49.563667,5.591672,2.0,110.0,None,,FOR_SALE,,155000.0,,,G,,TO_RENOVATE,1918.0,3.0,2.0,,,,,,,,,,,,,True,900.0,,,False,22.0,True,None,
https://www.immoweb.be/en/classified/house/for-sale/seraing/4100/20281915,20281915.0,HOUSE,HOUSE,Belgium,Wallonie,Seraing,4100,50.5922183,5.4971063,4.0,123.0,None,,FOR_SALE,,209000.0,,True,D,,AS_NEW,1955.0,2.0,1.0,5.0,False,27.0,INSTALLED,,,,,,,,,,,True,54.0,False,24.0,True,,
https://www.immoweb.be/en/classified/house/for-sale/herstal/4040/20281916,20281916.0,HOUSE,HOUSE,Belgium,Wallonie,Herstal,4040,50.6697972,5.6196966,4.0,156.0,None,,FOR_SALE,,249000.0,,False,C,,GOOD,,3.0,1.0,8.0,False,9.0,INSTALLED,,,,,,,,,True,94.0,True,23.0,False,33.0,True,,
https://www.immoweb.be/en/classified/house/for-sale/herstal/4040/20281808,20281808.0,HOUSE,HOUSE,Belgium,Wallonie,Herstal,4040,50.669833,5.6198334,3.0,103.0,None,,FOR_SALE,,249000.0,,False,D,,AS_NEW,,3.0,1.0,5.0,False,12.0,HYPER_EQUIPPED,,,,,,,,,True,131.0,True,131.0,False,24.0,True,,
https://www.immoweb.be/en/classified/house/for-sale/kortenaken/3470/20282620,20282620.0,HOUSE,HOUSE,Belgium,Flanders,Kortenaken,3470,50.9077732,5.0643486,2.0,150.0,None,11.0,FOR_SALE,,259000.0,,,D,,TO_RENOVATE,1930.0,,,9.0,,10.0,INSTALLED,,,,,,,,,True,1900.0,,,False,19.0,True,,
https://www.immoweb.be/en/classified/house/for-sale/rouvroy/6767/20283698,20283698.0,HOUSE,HOUSE,Belgium,Wallonie,Rouvroy,6767,49.55799769999999,5.497910399999999,4.0,140.0,None,,FOR_SALE,,330000.0,,,F,,GOOD,1970.0,4.0,1.0,,,11.0,,,,,,,,,,True,1000.0,True,20.0,False,32.0,True,,
https://www.immoweb.be/en/classified/house/for-sale/keerbergen/3140/20292135,20292135.0,HOUSE,HOUSE,Belgium,Flanders,Keerbergen,3140,50.99843509999999,4.608939599999999,3.0,378.0,None,1.0,FOR_SALE,,995000.0,,,B,,GOOD,2007.0,4.0,3.0,,True,,,,,,,,,,None,,,True,,False,,,None,
https://www.immoweb.be/en/classified/house/for-sale/sint-niklaas/9111/20277449,20277449.0,HOUSE,HOUSE,Belgium,Flanders,Sint-Niklaas,9111,51.1393692,4.070984699999999,3.0,146.0,None,3.0,FOR_SALE,,399000.0,,False,C,1.0,GOOD,1997.0,3.0,3.0,9.0,False,12.0,INSTALLED,,,,,,,,,True,300.0,True,34.0,False,37.0,True,,
https://www.immoweb.be/en/classified/house/for-sale/geraardsbergen/9500/20288903,20288903.0,HOUSE,HOUSE,Belgium,Flanders,GERAARDSBERGEN,9500,50.7725926,3.8737336,4.0,147.0,None,,FOR_SALE,,160000.0,,,C,,TO_BE_DONE_UP,,2.0,,4.0,,,INSTALLED,,,,,,,,,,,True,22.0,False,32.0,True,,
https://www.immoweb.be/en/classified/house/for-sale/zandvoorde%20%288400%29/8400/20296898,20296898.0,HOUSE,HOUSE,Belgium,Flanders,Zandvoorde (8400),8400,51.2001578,2.9679711,0.0,,None,,FOR_SALE,,210000.0,,,D,,TO_RENOVATE,1970.0,,,,,,,,,,,,,,None,,,,,False,,,None,
https://www.immoweb.be/en/classified/house/for-sale/gent/9000/20296884,20296884.0,HOUSE,HOUSE,Belgium,Flanders,Gent,9000,51.0550262,3.725278399999999,3.0,142.0,None,9.0,FOR_SALE,,419000.0,,,E,,TO_RENOVATE,,,,,,,,,,,,,,,None,,,,,False,,,None,
https://www.immoweb.be/en/classified/house/for-sale/de%20haan/8420/20296883,20296883.0,HOUSE,HOUSE,Belgium,Flanders,De Haan,8420,51.2648534,3.0359249,3.0,100.0,None,7.0,FOR_SALE,,255000.0,,True,,,GOOD,2001.0,,,,,,,,,,,,,,None,,,True,,False,,,None,
https://www.immoweb.be/en/classified/house/for-sale/kortemark/8610/20296882,20296882.0,HOUSE,HOUSE,Belgium,Flanders,Kortemark,8610,51.0235262,3.0616148,3.0,155.0,None,15.0,FOR_SALE,,279800.0,,,E,,GOOD,1985.0,,,,,,INSTALLED,,,,,,,,None,,,,,False,,,,
https://www.immoweb.be/en/classified/house/for-sale/zwijndrecht/2070/20296878,20296878.0,HOUSE,HOUSE,Belgium,Flanders,Zwijndrecht,2070,,,6.0,302.0,None,15.0,FOR_SALE,,465000.0,,,F,,TO_RENOVATE,1930.0,,,,,,,,,,,,,,None,,,,,False,,,None,
https://www.immoweb.be/en/classified/house/for-sale/attre/7941/20296866,20296866.0,HOUSE,HOUSE,Belgium,Wallonie,Attre,7941,50.5998986,3.8355454,4.0,270.0,None,16.0,FOR_SALE,,490000.0,,False,F,,,,,1.0,,,12.0,INSTALLED,,,,,,,,,,,,,False,50.0,True,,
https://www.immoweb.be/en/classified/house/for-sale/wilrijk/2610/20296864,20296864.0,HOUSE,HOUSE,Belgium,Flanders,Wilrijk,2610,51.1754817,4.3938012,3.0,146.0,None,1.0,FOR_SALE,,279000.0,,,E,,TO_RENOVATE,,2.0,,5.0,,,,,,,,,,,None,True,165.0,,,False,,,None,
https://www.immoweb.be/en/classified/house/for-sale/genk/3600/20296861,20296861.0,HOUSE,HOUSE,Belgium,Flanders,Genk,3600,50.9629609,5.5006348,2.0,187.0,None,14.0,FOR_SALE,,450000.0,,,C,,AS_NEW,1960.0,,,,,,,,,,,,,,None,,,,,False,,,None,
https://www.immoweb.be/en/classified/house/for-sale/paal/3583/20296859,20296859.0,HOUSE,HOUSE,Belgium,Flanders,Paal,3583,51.0378622,5.1554512,4.0,263.0,None,18.0,FOR_SALE,,530000.0,,False,C,,,1999.0,,,,,,,,,,,,,,None,,,,,False,,,None,
https://www.immoweb.be/en/classified/house/for-sale/willebroek/2830/20296857,20296857.0,HOUSE,HOUSE,Belgium,Flanders,Willebroek,2830,51.0593237,4.3583481,3.0,117.0,None,11.0,FOR_SALE,,299000.0,,,C,,GOOD,1928.0,,,,,18.0,INSTALLED,,,,,,,,,True,45.0,,,False,13.0,True,,
https://www.immoweb.be/en/classified/house/for-sale/bonheiden/2820/20296855,20296855.0,HOUSE,HOUSE,Belgium,Flanders,Bonheiden,2820,51.0178391,4.5761962,5.0,341.0,None,1.0,FOR_SALE,,1295000.0,,,A,,GOOD,2024.0,4.0,2.0,14.59,,42.0,,,,,,,,,,,,,,False,35.0,True,,
https://www.immoweb.be/en/classified/house/for-sale/bonheiden/2820/20296854,20296854.0,HOUSE,HOUSE,Belgium,Flanders,Bonheiden,2820,51.03856529999999,4.550654,6.0,365.0,None,1.0,FOR_SALE,,495000.0,,,C,,GOOD,1967.0,4.0,,,,,,,,,,,,,None,,,True,,True,,,None,
https://www.immoweb.be/en/classified/house/for-sale/libramont-chevigny/6800/20289758,20289758.0,HOUSE,HOUSE,Belgium,Wallonie,Libramont-Chevigny,6800,49.9247264,5.3778882,3.0,90.0,None,,FOR_SALE,,188000.0,,,F,,TO_BE_DONE_UP,1933.0,2.0,2.0,,,,SEMI_EQUIPPED,,,,,,,,None,,,True,,False,,,,
https://www.immoweb.be/en/classified/house/for-sale/geraardsbergen/9500/20288931,20288931.0,HOUSE,HOUSE,Belgium,Flanders,GERAARDSBERGEN,9500,50.7694762,3.874702,5.0,236.0,None,,FOR_SALE,,235000.0,,,D,,TO_RENOVATE,1899.0,,,,,9.0,SEMI_EQUIPPED,,,,,,,,,True,50.0,True,39.0,False,40.0,True,,
https://www.immoweb.be/en/classified/house/for-sale/brakel/9660/20288928,20288928.0,HOUSE,HOUSE,Belgium,Flanders,BRAKEL,9660,50.80553519999999,3.7690676,4.0,171.0,None,,FOR_SALE,,235000.0,,,B,,GOOD,1899.0,2.0,,,,10.0,SEMI_EQUIPPED,,,,,,,,,,,,,False,15.0,True,,
https://www.immoweb.be/en/classified/house/for-sale/hulshout/2235/20287777,20287777.0,HOUSE,HOUSE,Belgium,Flanders,Hulshout,2235,51.0612522,4.8370685,3.0,155.0,None,17.0,FOR_SALE,,265000.0,,,F,,TO_BE_DONE_UP,1958.0,,2.0,,,,INSTALLED,,,,,,,,None,,,True,,False,,,,
https://www.immoweb.be/en/classified/house/for-sale/oostende/8400/20287766,20287766.0,HOUSE,HOUSE,Belgium,Flanders,Oostende,8400,51.2211742,2.901637,3.0,132.0,None,12.0,FOR_SALE,,299000.0,,,B,,JUST_RENOVATED,,,,,,11.0,HYPER_EQUIPPED,,,,,,,,,True,40.0,True,40.0,False,27.0,True,,
https://www.immoweb.be/en/classified/house/for-sale/melle/9090/20287028,20287028.0,HOUSE,HOUSE,Belgium,Flanders,Melle,9090,50.992114,3.8000597,3.0,193.0,None,9.0,FOR_SALE,,339000.0,,False,B,,GOOD,1935.0,,,,,,,,,,,,,,None,True,370.0,True,25.0,False,,,None,
https://www.immoweb.be/en/classified/house/for-sale/schoten/2900/20289014,20289014.0,HOUSE,HOUSE,Belgium,Flanders,SCHOTEN,2900,51.2551063,4.4982408,2.0,153.0,None,,FOR_SALE,,349000.0,,,C,,GOOD,,2.0,,5.0,,,SEMI_EQUIPPED,,,,,,,,,True,70.0,True,5.0,False,30.0,True,,
https://www.immoweb.be/en/classified/house/for-sale/balegem/9860/20288884,20288884.0,HOUSE,HOUSE,Belgium,Flanders,BALEGEM,9860,50.9010454,3.8062828,7.0,876.0,None,,FOR_SALE,,699000.0,,,F,,TO_RENOVATE,1899.0,,,,,32.0,SEMI_EQUIPPED,,,,,,,,,True,3263.0,True,227.0,False,72.0,True,,
