url,id,type,subtype,country,region,street,number,locality_name,locality_code,locality_latitude,locality_longitude,bedroom_count,net_habitable_surface,land_surface,room_count,transaction_type,sale_annuity,price,old_price,furnished,epc,annex_count,building_condition,construction_year,facade_count,floor_count,street_facade_width,pool,kitchen_area,kitchen_type,kitchen_oven,kitchen_microwave,kitchen_dishwasher,kitchen_washing_machine,kitchen_fridge,kitchen_freezer,kitchen_steam_oven,living_room_area,has_living_room,garden,garden_area,terrace,terrace_area,fireplace,kitchen,living_room,building
https://www.immoweb.be/en/classified/house/for-sale/bouillon-corbion/6838/20305728,20305728,HOUSE,HOUSE,Belgium,Wallonie,Rue du Tambour,30,Bouillon Corbion,6838,49.7945146,5.007637600000001,5,156.0,None,,FOR_SALE,,149500.0,,False,G,,TO_RENOVATE,1930.0,2.0,1.0,14.5,False,16.0,NOT_INSTALLED,,,,,,,,40.0,True,True,400.0,True,15.0,False,,,
https://www.immoweb.be/en/classified/house/for-sale/grace-hollogne/4460/20305941,20305941,HOUSE,HOUSE,Belgium,Wallonie,Rue des Meuniers,36,Grâce-Hollogne,4460,50.6263122,5.502080599999999,2,151.0,None,,FOR_SALE,,179000.0,,False,D,,TO_RENOVATE,1959.0,2.0,1.0,8.0,False,13.0,SEMI_EQUIPPED,,,,,,,,39.0,True,True,275.0,,,False,,,
https://www.immoweb.be/en/classified/house/for-sale/ans/4430/20305771,20305771,HOUSE,HOUSE,Belgium,Wallonie,Rue de l'Yser,193,Ans,4430,50.6593322,5.5226954,3,115.0,None,,FOR_SALE,,230000.0,,True,D,,GOOD,1950.0,2.0,2.0,4.0,False,13.0,INSTALLED,,,,,,,,18.0,True,True,187.0,True,40.0,True,,,
https://www.immoweb.be/en/classified/house/for-sale/heusden/9070/20307924,20307924,HOUSE,HOUSE,Belgium,Flanders,Kalverbosstraat,83,Heusden,9070,51.0133939,3.801314899999999,3,175.0,None,4.0,FOR_SALE,,375000.0,,,F,,GOOD,,,1.0,,,,,,,,,,,,,,,,,,False,None,None,
https://www.immoweb.be/en/classified/house/for-sale/wuustwezel/2990/20307923,20307923,HOUSE,HOUSE,Belgium,Flanders,Westdoorn,8B,WUUSTWEZEL,2990,51.3807609,4.5631629,3,220.0,None,,FOR_SALE,,475000.0,,,D,,GOOD,1971.0,4.0,,14.0,,13.0,HYPER_EQUIPPED,,,,,,,,38.0,True,,,,,False,,,
https://www.immoweb.be/en/classified/house/for-sale/kapellen/2950/20307921,20307921,HOUSE,HOUSE,Belgium,Flanders,,,KAPELLEN,2950,,,5,457.0,None,,FOR_SALE,,1585000.0,,,A,,,2021.0,4.0,,,,,HYPER_EQUIPPED,,,,,,,,63.0,True,True,3830.0,,,False,,,
https://www.immoweb.be/en/classified/house/for-sale/wuustwezel/2990/20307918,20307918,HOUSE,HOUSE,Belgium,Flanders,Bredabaan,487,WUUSTWEZEL,2990,51.388523,4.5901466,3,138.0,None,,FOR_SALE,,299000.0,,,E,,TO_RENOVATE,1940.0,3.0,,,,,SEMI_EQUIPPED,,,,,,,,37.0,True,True,72.0,,,False,,,
https://www.immoweb.be/en/classified/house/for-sale/wuustwezel/2990/20307919,20307919,HOUSE,HOUSE,Belgium,Flanders,Arthur Boelstraat,8,WUUSTWEZEL,2990,51.3513331,4.5466755,3,150.0,None,,FOR_SALE,,320000.0,,,F,,TO_RENOVATE,,3.0,,7.0,,15.0,INSTALLED,,,,,,,,20.0,True,,,True,,False,,,
https://www.immoweb.be/en/classified/house/for-sale/essen/2910/20307920,20307920,HOUSE,HOUSE,Belgium,Flanders,Grensstraat,40,ESSEN,2910,51.46941959999999,4.454323599999999,3,130.0,None,,FOR_SALE,,315000.0,,,F,,TO_BE_DONE_UP,1918.0,3.0,,,,14.0,NOT_INSTALLED,,,,,,,,36.0,True,True,375.0,,,False,,,
https://www.immoweb.be/en/classified/house/for-sale/wilrijk/2610/20307908,20307908,HOUSE,HOUSE,Belgium,Flanders,Monnikenplein,11,WILRIJK,2610,51.1749213,4.430543,5,202.0,None,,FOR_SALE,,685000.0,,,C,,GOOD,1961.0,,,,,,INSTALLED,,,,,,,,,,,,,,False,,None,
https://www.immoweb.be/en/classified/house/for-sale/wichelen/9260/20301924,20301924,HOUSE,HOUSE,Belgium,Flanders,Paepestraat,112,WICHELEN,9260,50.9967462,3.9716987,3,251.0,None,,FOR_SALE,,395000.0,,,D,,TO_RENOVATE,1976.0,,,,,,,,,,,,,,,,,,,,False,None,None,
https://www.immoweb.be/en/classified/house/for-sale/verviers/4800/20307883,20307883,HOUSE,HOUSE,Belgium,Wallonie,Rue de mangombroux,199,Verviers,4800,50.5890849,5.8719245,2,80.0,None,8.0,FOR_SALE,,129000.0,,False,C,,TO_BE_DONE_UP,,2.0,1.0,7.0,False,18.0,SEMI_EQUIPPED,,,,,,,,18.0,True,,,,,False,,,
https://www.immoweb.be/en/classified/house/for-sale/sijsele/8340/20085771,20085771,HOUSE,HOUSE,Belgium,Flanders,Molenstraat,67,Sijsele,8340,51.2026291,3.3244333,3,177.0,None,5.0,FOR_SALE,,499000.0,549000.0,,D,,GOOD,,4.0,1.0,,,6.0,,,,,,,,,54.0,True,,,,,True,,,
https://www.immoweb.be/en/classified/house/for-sale/leuven/3000/20307877,20307877,HOUSE,HOUSE,Belgium,Flanders,Mol straat,18,Leuven,3000,50.8670351,4.736339,3,124.0,None,4.0,FOR_SALE,,375000.0,,,C,,GOOD,,,1.0,,,,,,,,,,,,,,,,True,,False,None,None,
https://www.immoweb.be/en/classified/house/for-sale/antwerpen/2050/20307874,20307874,HOUSE,HOUSE,Belgium,Flanders,Tijl Uilenspiegellaan,41,ANTWERPEN,2050,51.22983869999999,4.3807456,3,160.0,None,,FOR_SALE,,399000.0,,,C,,GOOD,1962.0,2.0,2.0,,,7.0,INSTALLED,,,,,,,,36.0,True,True,90.0,True,4.0,False,,,
https://www.immoweb.be/en/classified/house/for-sale/gent/9000/20240071,20240071,HOUSE,HOUSE,Belgium,Flanders,Sint-Lievenspoortstraat,110,Gent,9000,51.0426447,3.7355606,1,40.0,None,4.0,FOR_SALE,,199000.0,215000.0,False,F,,TO_BE_DONE_UP,,,,,,,,,,,,,,,,,,,,,False,None,None,
https://www.immoweb.be/en/classified/house/for-sale/namur%20beez/5000/20307872,20307872,HOUSE,HOUSE,Belgium,Wallonie,,,Namur Beez,5000,,,3,248.0,None,,FOR_SALE,,720874.0,,,A+,,AS_NEW,,4.0,,22.8,,,,,,,,,,,,,,,,,False,None,None,
https://www.immoweb.be/en/classified/house/for-sale/saint-georges-sur-meuse/4470/20307867,20307867,HOUSE,HOUSE,Belgium,Wallonie,Rue Mallieue,228,Saint-Georges-sur-Meuse,4470,50.5722633,5.379441799999999,4,245.0,None,,FOR_SALE,,139000.0,,False,E,,TO_RENOVATE,,4.0,,,,,,,,,,,,,40.0,True,,,,,False,None,,
https://www.immoweb.be/en/classified/house/for-sale/mechelen/2800/20296298,20296298,HOUSE,HOUSE,Belgium,Flanders,Caputsteenstraat,148,Mechelen,2800,51.0332659,4.4917284,4,153.0,None,,FOR_SALE,,320000.0,,,D,,JUST_RENOVATED,1930.0,2.0,,5.0,,19.0,INSTALLED,,,,,,,,,,True,37.0,True,,False,,None,
https://www.immoweb.be/en/classified/house/for-sale/gavere-semmerzake/9890/20305712,20305712,HOUSE,HOUSE,Belgium,Flanders,Dorpstraat,69,Gavere Semmerzake,9890,50.9454064,3.6708656,2,375.0,None,,FOR_SALE,,575000.0,,False,B,,GOOD,1986.0,4.0,2.0,15.0,False,21.0,HYPER_EQUIPPED,,,,,,,,46.0,True,True,480.0,True,75.0,False,,,
https://www.immoweb.be/en/classified/house/for-sale/auderghem/1160/20306559,20306559,HOUSE,HOUSE,Belgium,Brussels,Jacques Bassem,74,Auderghem,1160,50.8134276,4.4289454,4,170.0,None,12.0,FOR_SALE,,649000.0,,False,E,,GOOD,1931.0,2.0,3.0,6.0,False,19.0,HYPER_EQUIPPED,,,,,,,,,,True,87.0,True,15.0,False,,None,
https://www.immoweb.be/en/classified/house/for-sale/duffel/2570/20304337,20304337,HOUSE,HOUSE,Belgium,Flanders,Mijlstraat,8,Duffel,2570,51.0907793,4.554952,3,168.0,None,,FOR_SALE,,438000.0,,,B,,GOOD,1987.0,3.0,1.0,7.0,,20.0,INSTALLED,,,,,,,,40.0,True,True,400.0,True,40.0,False,,,
https://www.immoweb.be/en/classified/house/for-sale/duffel/2570/20304859,20304859,HOUSE,HOUSE,Belgium,Flanders,Molenstraat,6,DUFFEL,2570,51.0961637,4.5059086,3,195.0,None,,FOR_SALE,,348000.0,,,B,,GOOD,1850.0,,3.0,6.0,,8.0,,,,,,,,,36.0,True,,,True,33.0,False,,,
https://www.immoweb.be/en/classified/house/for-sale/wavre/1300/20295477,20295477,HOUSE,HOUSE,Belgium,Wallonie,Place de la Loriette,2,WAVRE,1300,50.7176301,4.603354299999999,2,110.0,None,,FOR_SALE,,200000.0,,,E,,TO_RENOVATE,1915.0,3.0,2.0,,,9.0,,,,,,,,,24.0,True,,,True,8.0,False,,,
https://www.immoweb.be/en/classified/house/for-sale/rotselaar/3110/20298893,20298893,HOUSE,HOUSE,Belgium,Flanders,Torenstraat,69,Rotselaar,3110,50.9542054,4.7170475,4,162.0,None,15.0,FOR_SALE,,359000.0,,False,F,,TO_RENOVATE,1954.0,,,8.0,,13.0,INSTALLED,,,,,,,,,,True,170.0,True,22.0,False,,None,
https://www.immoweb.be/en/classified/house/for-sale/oudenaarde/9700/20303163,20303163,HOUSE,HOUSE,Belgium,Flanders,Deinzestraat,41,Oudenaarde,9700,50.8525654,3.5948633,4,100.0,None,14.0,FOR_SALE,,110000.0,,False,F,,TO_RENOVATE,1875.0,2.0,,5.0,,8.0,,,,,,,,,32.0,True,,,True,,False,,,
https://www.immoweb.be/en/classified/house/for-sale/brugelette/7940/20222306,20222306,HOUSE,HOUSE,Belgium,Wallonie,Rue des Combattants,51,BRUGELETTE,7940,50.5978674,3.8520788,2,140.0,None,,FOR_SALE,,139000.0,,,G,,TO_RENOVATE,1951.0,,,,,15.0,NOT_INSTALLED,,,,,,,,,,True,379.0,,,False,,None,
https://www.immoweb.be/en/classified/house/for-sale/seraing/4100/20307226,20307226,HOUSE,HOUSE,Belgium,Wallonie,Rue Fanny,117,Seraing,4100,50.602113,5.506821599999999,3,131.0,None,,FOR_SALE,,236000.0,,False,C,,GOOD,1918.0,2.0,2.0,5.0,False,7.0,INSTALLED,,,,,,,,26.0,True,True,160.0,,,False,,,
https://www.immoweb.be/en/classified/house/for-sale/flemalle/4400/20307649,20307649,HOUSE,HOUSE,Belgium,Wallonie,Route de Souxhon,322,FLÉMALLE,4400,50.61128799999999,5.458790599999999,3,140.0,None,,FOR_SALE,,269000.0,,,F,,GOOD,1933.0,2.0,,,,7.0,INSTALLED,,,,,,,,30.0,True,True,289.0,True,38.0,False,,,
https://www.immoweb.be/en/classified/house/for-sale/gent/9000/20307640,20307640,HOUSE,HOUSE,Belgium,Flanders,Schaliestraat,8,Gent,9000,51.0624432,3.7042545,4,145.0,None,11.0,FOR_SALE,,345000.0,,,C,,GOOD,1963.0,2.0,4.0,5.0,,10.0,,,,,,,,,35.0,True,True,38.0,,,False,,,
https://www.immoweb.be/en/classified/house/for-sale/duffel/2570/20307756,20307756,HOUSE,HOUSE,Belgium,Flanders,Kerkstraat,7,DUFFEL,2570,51.0951316,4.5010846,3,355.0,None,,FOR_SALE,,368000.0,,,E,,TO_RENOVATE,1930.0,2.0,4.0,,,,,,,,,,,,,,,,,,False,None,None,
https://www.immoweb.be/en/classified/house/for-sale/wilrijk/2610/20301840,20301840,HOUSE,HOUSE,Belgium,Flanders,Standonklaan,39,WILRIJK,2610,51.1657094,4.3929767,5,288.0,None,,FOR_SALE,,440000.0,,,D,,TO_RENOVATE,,3.0,,7.0,,,SEMI_EQUIPPED,,,,,,,,,,True,60.0,True,5.0,False,,None,
https://www.immoweb.be/en/classified/house/for-sale/tessenderlo/3980/20288276,20288276,HOUSE,HOUSE,Belgium,Flanders,Processieweg,24,Tessenderlo,3980,51.0708628,5.0814963,3,130.0,None,,FOR_SALE,,259000.0,,False,F,,TO_BE_DONE_UP,1963.0,3.0,,,,,,,,,,,,,,,True,840.0,True,,False,None,None,
https://www.immoweb.be/en/classified/house/for-sale/saint-pierre%20%28libramont-chevigny%29/6800/20307847,20307847,HOUSE,HOUSE,Belgium,Wallonie,Beuvlimont,56,Saint-Pierre (Libramont-Chevigny),6800,49.8963127,5.387017999999999,4,214.0,None,,FOR_SALE,,385000.0,,False,C,,,1874.0,4.0,,,False,,,,,,,,,,,,,,,,False,None,None,
https://www.immoweb.be/en/classified/house/for-sale/li%C3%A8ge%20ch%C3%AAn%C3%A9e/4032/20307845,20307845,HOUSE,HOUSE,Belgium,Wallonie,Rue de Gaillarmont,411,Liège Chênée,4032,50.6208052,5.6263046,2,85.0,None,,FOR_SALE,,135000.0,,False,G,,TO_RENOVATE,,4.0,2.0,,False,,,,,,,,,,,,True,68.0,True,,False,None,None,
https://www.immoweb.be/en/classified/house/for-sale/ans/4430/20238025,20238025,HOUSE,HOUSE,Belgium,Wallonie,Rue Bonne Nouvelle,57,Ans,4430,50.6553108,5.5439704,4,118.0,None,,FOR_SALE,,299000.0,499000.0,False,G,,GOOD,1977.0,4.0,1.0,17.0,False,9.0,INSTALLED,,,,,,,,20.0,True,True,1629.0,True,6.0,False,,,
https://www.immoweb.be/en/classified/house/for-sale/yvoir/5530/20307833,20307833,HOUSE,HOUSE,Belgium,Wallonie,,,Yvoir,5530,,,4,140.0,None,,FOR_SALE,,249000.0,,,G,,TO_RENOVATE,1918.0,4.0,1.0,,False,7.0,INSTALLED,,,,,,,,24.0,True,,,,,False,,,
https://www.immoweb.be/en/classified/house/for-sale/neerijse/3040/20260112,20260112,HOUSE,HOUSE,Belgium,Flanders,Dorpsstraat,34,Neerijse,3040,50.81767680000001,4.6256246,2,125.0,None,,FOR_SALE,,270000.0,285000.0,False,F,,TO_RENOVATE,1985.0,2.0,3.0,,,8.0,SEMI_EQUIPPED,,,,,,,,22.0,True,,,True,20.0,False,,,
https://www.immoweb.be/en/classified/house/for-sale/wezembeek-oppem/1970/20307831,20307831,HOUSE,HOUSE,Belgium,Flanders,,,Wezembeek-Oppem,1970,,,3,150.0,None,,FOR_SALE,,675000.0,,False,B,,AS_NEW,1950.0,2.0,2.0,6.0,False,20.0,NOT_INSTALLED,,,,,,,,30.0,True,True,100.0,True,17.0,False,,,
https://www.immoweb.be/en/classified/house/for-sale/herzele/9550/20307830,20307830,HOUSE,HOUSE,Belgium,Flanders,Gentweg,40,Herzele,9550,50.8499725,3.8627517,2,155.0,None,,FOR_SALE,,285000.0,,False,C,,TO_BE_DONE_UP,,3.0,,,False,,,,,,,,,,,,,,,,False,None,None,
https://www.immoweb.be/en/classified/house/for-sale/oostkamp%20ruddervoorde/8020/20307829,20307829,HOUSE,HOUSE,Belgium,Flanders,Torhoutsestraat,42,Oostkamp Ruddervoorde,8020,51.0934342,3.204785,5,379.0,None,,FOR_SALE,,400000.0,,,F,,TO_RENOVATE,1899.0,4.0,3.0,,False,,INSTALLED,,,,,,,,50.0,True,True,1071.0,True,,False,,,
https://www.immoweb.be/en/classified/house/for-sale/wervik/8940/20307824,20307824,HOUSE,HOUSE,Belgium,Flanders,Rekestraat,16,Wervik,8940,50.7834752,3.0471249,2,87.0,None,,FOR_SALE,,145000.0,,False,D,,GOOD,,2.0,,5.0,False,,INSTALLED,,,,,,,,,,True,8.0,,,False,,None,
https://www.immoweb.be/en/classified/house/for-sale/menen/8930/20307822,20307822,HOUSE,HOUSE,Belgium,Flanders,Bakkersstraat,5,Menen,8930,50.78760940000001,3.129521,1,86.0,None,,FOR_SALE,,129000.0,,False,E,,GOOD,,2.0,,4.0,,,INSTALLED,,,,,,,,,,,,,,False,,None,
https://www.immoweb.be/en/classified/house/for-sale/erembodegem/9320/20305440,20305440,HOUSE,HOUSE,Belgium,Flanders,Hof ter Lokerenstraat,6,EREMBODEGEM,9320,50.9128047,4.03012,3,135.0,None,,FOR_SALE,,269000.0,,,D,,GOOD,1930.0,2.0,3.0,,,,INSTALLED,,,,,,,,,,,,True,,False,,None,
https://www.immoweb.be/en/classified/house/for-sale/geraardsbergen/9500/20304135,20304135,HOUSE,HOUSE,Belgium,Flanders,Pirrestraat,17,GERAARDSBERGEN,9500,50.7521206,3.9254954,3,167.0,None,,FOR_SALE,,299999.0,,,D,,GOOD,1938.0,2.0,,,,16.0,INSTALLED,,,,,,,,37.0,True,True,895.0,True,,False,,,
https://www.immoweb.be/en/classified/house/for-sale/vloesberg/7880/20303029,20303029,HOUSE,HOUSE,Belgium,Wallonie,Sainte-Anne,2,Vloesberg,7880,50.7569262,3.7298833,3,300.0,None,,FOR_SALE,,605250.0,,False,C,,GOOD,1987.0,4.0,1.0,,False,19.0,HYPER_EQUIPPED,,,,,,,,61.0,True,True,2300.0,True,41.0,False,,,
https://www.immoweb.be/en/classified/house/for-sale/overijse/3090/20300536,20300536,HOUSE,HOUSE,Belgium,Flanders,Terhulpensesteenweg,600,Overijse,3090,50.7428551,4.511547,4,234.0,None,,FOR_SALE,,675000.0,,False,D,,GOOD,1959.0,4.0,1.0,,False,17.0,HYPER_EQUIPPED,,,,,,,,49.0,True,True,700.0,True,18.0,False,,,
https://www.immoweb.be/en/classified/house/for-sale/aarschot/3202/20296446,20296446,HOUSE,HOUSE,Belgium,Flanders,Oudenbos,65,AARSCHOT,3202,50.9668254,4.8992292,3,175.0,None,,FOR_SALE,,249000.0,,,F,,GOOD,1953.0,3.0,,,,,,,,,,,,,,,,,,,False,None,None,
https://www.immoweb.be/en/classified/house/for-sale/geraardsbergen/9500/20307738,20307738,HOUSE,HOUSE,Belgium,Flanders,Oudenaardsestraat,114,GERAARDSBERGEN,9500,50.7722709,3.8701155,2,140.0,None,,FOR_SALE,,275000.0,,,C,,JUST_RENOVATED,1936.0,2.0,2.0,,,18.0,INSTALLED,,,,,,,,33.0,True,,,True,21.0,False,,,
https://www.immoweb.be/en/classified/house/for-sale/gistel/8470/20305573,20305573,HOUSE,HOUSE,Belgium,Flanders,Assepoesterstraat,17,Gistel,8470,51.1768543,2.9379991,3,152.0,None,11.0,FOR_SALE,,399000.0,,False,C,,GOOD,1998.0,,,,,12.0,,,,,,,,,39.0,True,True,145.0,True,25.0,False,,,
https://www.immoweb.be/en/classified/house/for-sale/pittem/8740/20305954,20305954,HOUSE,HOUSE,Belgium,Flanders,Posterijlaan,33,Pittem,8740,50.9908238,3.2509985,4,277.0,None,18.0,FOR_SALE,,430000.0,,False,F,,GOOD,1965.0,,,,,16.0,SEMI_EQUIPPED,,,,,,,,,,,,True,,False,,None,
https://www.immoweb.be/en/classified/house/for-sale/gits/8830/20306572,20306572,HOUSE,HOUSE,Belgium,Flanders,Stationsstraat,10,Gits,8830,50.9975052,3.1003835,4,334.0,None,22.0,FOR_SALE,,445000.0,,False,B,,GOOD,,,,,,21.0,INSTALLED,,,,,,,,16.0,True,True,75.0,True,49.0,False,,,
https://www.immoweb.be/en/classified/house/for-sale/attert/6717/20306037,20306037,HOUSE,HOUSE,Belgium,Wallonie,Route de habay,30,Attert,6717,49.7634602,5.7320337,3,171.0,None,16.0,FOR_SALE,,490000.0,,False,C,,GOOD,1984.0,4.0,1.0,13.0,False,14.0,INSTALLED,,,,,,,,34.0,True,True,896.0,True,75.0,False,,,
https://www.immoweb.be/en/classified/house/for-sale/attert-metzert/6717/20305753,20305753,HOUSE,HOUSE,Belgium,Wallonie,Chaussée Romaine,130,Attert (Metzert),6717,49.7232211,5.7932197,6,370.0,None,,FOR_SALE,,1050000.0,,,C,,AS_NEW,1989.0,4.0,,,,31.0,INSTALLED,,,,,,,,38.0,True,True,15382.0,True,,True,,,
https://www.immoweb.be/en/classified/house/for-sale/seraing/4100/20297926,20297926,HOUSE,HOUSE,Belgium,Wallonie,Rue de la Cité Bergerie,42,Seraing,4100,50.5928878,5.4910842,1,70.0,None,,FOR_SALE,,79000.0,,,G,,GOOD,1948.0,2.0,1.0,6.0,False,14.0,SEMI_EQUIPPED,,,,,,,,12.0,True,True,55.0,,,False,,,
https://www.immoweb.be/en/classified/house/for-sale/flemalle/4400/20299002,20299002,HOUSE,HOUSE,Belgium,Wallonie,Rue des Cytises,15,FLÉMALLE,4400,50.6154105,5.4425476,2,75.0,None,,FOR_SALE,,249000.0,,,F,,TO_BE_DONE_UP,1969.0,4.0,,,,11.0,SEMI_EQUIPPED,,,,,,,,,,True,690.0,True,22.0,False,,None,
https://www.immoweb.be/en/classified/house/for-sale/herent/3020/20298078,20298078,HOUSE,HOUSE,Belgium,Flanders,Bijlokstraat,64,HERENT,3020,50.9124621,4.6861423,3,116.0,None,,FOR_SALE,,295000.0,,,E,,TO_BE_DONE_UP,1964.0,2.0,2.0,6.0,,,INSTALLED,,,,,,,,,,True,62.0,True,,False,,None,
https://www.immoweb.be/en/classified/house/for-sale/herstal/4040/20303254,20303254,HOUSE,HOUSE,Belgium,Wallonie,Rue sur les Thiers,146,Herstal,4040,50.67086949999999,5.6114779,3,88.0,None,,FOR_SALE,,149000.0,,False,E,,GOOD,1918.0,2.0,1.0,4.0,False,12.0,INSTALLED,,,,,,,,30.0,True,,,True,19.0,False,,,
https://www.immoweb.be/en/classified/house/for-sale/aubange-athus/6791/20304262,20304262,HOUSE,HOUSE,Belgium,Wallonie,Rue Neuve,44,Aubange (Athus),6791,49.5640739,5.839239699999999,2,86.0,None,,FOR_SALE,,180000.0,,,F,,GOOD,1930.0,2.0,,,,10.0,INSTALLED,,,,,,,,19.0,True,,,True,,False,,,
https://www.immoweb.be/en/classified/house/for-sale/gent/9050/20304463,20304463,HOUSE,HOUSE,Belgium,Flanders,Jozef Vervaenestraat,55,Gent,9050,51.0324076,3.7453117,3,118.0,None,,FOR_SALE,,409000.0,,False,B,,AS_NEW,1980.0,2.0,3.0,,False,,INSTALLED,,,,,,,,,,True,20.0,True,,False,,None,
https://www.immoweb.be/en/classified/house/for-sale/uccle/1180/20301888,20301888,HOUSE,HOUSE,Belgium,Brussels,Avenue Alphonse XIII,10,Uccle,1180,50.7927912,4.3732755,4,276.0,None,,FOR_SALE,,1350000.0,,False,G,,AS_NEW,1933.0,4.0,2.0,9.4,False,,HYPER_EQUIPPED,,,,,,,,,,True,373.0,True,40.0,False,,None,
https://www.immoweb.be/en/classified/house/for-sale/roeselare/8800/20305942,20305942,HOUSE,HOUSE,Belgium,Flanders,Arme-Klarenstraat,24,Roeselare,8800,50.9440658,3.1213367,5,149.0,None,16.0,FOR_SALE,,155000.0,,False,F,,TO_RENOVATE,1952.0,,,,,7.0,,,,,,,,,8.0,True,,,True,,False,,,
https://www.immoweb.be/en/classified/house/for-sale/wervik/8940/20307824,20307824,HOUSE,HOUSE,Belgium,Flanders,Rekestraat,16,Wervik,8940,50.7834752,3.0471249,2,87.0,None,,FOR_SALE,,145000.0,,False,D,,GOOD,,2.0,,5.0,False,,INSTALLED,,,,,,,,,,True,8.0,,,False,,None,
https://www.immoweb.be/en/classified/house/for-sale/menen/8930/20307822,20307822,HOUSE,HOUSE,Belgium,Flanders,Bakkersstraat,5,Menen,8930,50.78760940000001,3.129521,1,86.0,None,,FOR_SALE,,129000.0,,False,E,,GOOD,,2.0,,4.0,,,INSTALLED,,,,,,,,,,,,,,False,,None,
https://www.immoweb.be/en/classified/house/for-sale/duffel/2570/20307756,20307756,HOUSE,HOUSE,Belgium,Flanders,Kerkstraat,7,DUFFEL,2570,51.0951316,4.5010846,3,355.0,None,,FOR_SALE,,368000.0,,,E,,TO_RENOVATE,1930.0,2.0,4.0,,,,,,,,,,,,,,,,,,False,None,None,
https://www.immoweb.be/en/classified/house/for-sale/musson%20mussyla-ville/6750/20283736,20283736,HOUSE,HOUSE,Belgium,Wallonie,Rue du Moulin,2,Musson Mussyla-Ville,6750,49.5703432,5.6625969,3,180.0,None,,FOR_SALE,,99000.0,,,G,,TO_RENOVATE,1850.0,2.0,2.0,,,12.0,SEMI_EQUIPPED,,,,,,,,,,,,,,False,,None,
https://www.immoweb.be/en/classified/house/for-sale/quaregnon/7390/20307749,20307749,HOUSE,HOUSE,Belgium,Wallonie,,,QUAREGNON,7390,,,4,189.0,None,4.0,FOR_SALE,,260000.0,,False,E,,GOOD,,3.0,2.0,,,,HYPER_EQUIPPED,,,,,,,,,,,,True,100.0,False,,None,
https://www.immoweb.be/en/classified/house/for-sale/geraardsbergen/9500/20307738,20307738,HOUSE,HOUSE,Belgium,Flanders,Oudenaardsestraat,114,GERAARDSBERGEN,9500,50.7722709,3.8701155,2,140.0,None,,FOR_SALE,,275000.0,,,C,,JUST_RENOVATED,1936.0,2.0,2.0,,,18.0,INSTALLED,,,,,,,,33.0,True,,,True,21.0,False,,,
https://www.immoweb.be/en/classified/house/for-sale/maaseik/3680/20307726,20307726,HOUSE,HOUSE,Belgium,Flanders,,,MAASEIK,3680,,,4,145.0,None,,FOR_SALE,,219999.0,,,F,,TO_RENOVATE,1965.0,3.0,,,,193.0,SEMI_EQUIPPED,,,,,,,,48.0,True,True,680.0,,,False,,,
https://www.immoweb.be/en/classified/house/for-sale/ieper/8900/20307717,20307717,HOUSE,HOUSE,Belgium,Flanders,Arsenaalstraat,17,Ieper,8900,50.8468445,2.8848127,3,135.0,None,,FOR_SALE,,245000.0,,False,C,,GOOD,1930.0,2.0,,,False,,INSTALLED,,,,,,,,,,,,True,6.0,False,,None,
https://www.immoweb.be/en/classified/house/for-sale/ieper/8900/20269586,20269586,HOUSE,HOUSE,Belgium,Flanders,Beukenlaan,16,Ieper,8900,50.8571751,2.8958176,3,143.0,None,,FOR_SALE,,225000.0,239000.0,False,E,,TO_BE_DONE_UP,1968.0,3.0,2.0,,False,,SEMI_EQUIPPED,,,,,,,,,,,,,,False,,None,
https://www.immoweb.be/en/classified/house/for-sale/vilvoorde/1800/20307709,20307709,HOUSE,HOUSE,Belgium,Flanders,Harensesteenweg,225,Vilvoorde,1800,50.9175996,4.4217658,3,177.0,None,,FOR_SALE,,269000.0,,False,D,,,1975.0,2.0,,,False,8.0,HYPER_EQUIPPED,,,,,,,,33.0,True,,,True,,False,,,
https://www.immoweb.be/en/classified/house/for-sale/tollembeek/1570/20307706,20307706,HOUSE,HOUSE,Belgium,Flanders,Muylebeekstraat,52,TOLLEMBEEK,1570,50.7373529,3.9888952,3,256.0,None,,FOR_SALE,,269000.0,,,F,,TO_RENOVATE,1930.0,4.0,3.0,17.0,,,SEMI_EQUIPPED,,,,,,,,60.0,True,True,230.0,True,32.0,False,,,
https://www.immoweb.be/en/classified/house/for-sale/turnhout/2300/20307705,20307705,HOUSE,HOUSE,Belgium,Flanders,Lillokensstraat,43,Turnhout,2300,51.3197212,4.957244,3,135.0,None,,FOR_SALE,,339000.0,,,C,,JUST_RENOVATED,1950.0,2.0,,,,9.0,INSTALLED,,,,,,,,44.0,True,True,25.0,True,25.0,False,,,
https://www.immoweb.be/en/classified/house/for-sale/ham/3945/20307703,20307703,HOUSE,HOUSE,Belgium,Flanders,Genebosstraat,46A,HAM,3945,51.0816124,5.136842,5,322.0,None,,FOR_SALE,,769000.0,,,A,,AS_NEW,2012.0,4.0,,,,,INSTALLED,,,,,,,,,,,,True,,False,,None,
https://www.immoweb.be/en/classified/house/for-sale/ixelles/1050/20307701,20307701,HOUSE,HOUSE,Belgium,Brussels,Avenue Auguste Rodin,33,Ixelles,1050,50.8271454,4.379673599999999,4,233.0,None,,FOR_SALE,,875000.0,,False,G,,TO_BE_DONE_UP,1929.0,3.0,3.0,,,25.0,HYPER_EQUIPPED,,,,,,,,15.0,True,,,True,21.0,False,,,
https://www.immoweb.be/en/classified/house/for-sale/tongeren/3700/20305785,20305785,HOUSE,HOUSE,Belgium,Flanders,Viséweg,210,Tongeren,3700,50.7771315,5.524293699999999,3,145.0,None,,FOR_SALE,,210000.0,,False,F,,GOOD,1930.0,4.0,1.0,7.0,False,13.0,INSTALLED,,,,,,,,25.0,True,True,80.0,True,22.0,False,,,
https://www.immoweb.be/en/classified/house/for-sale/lauwe/8930/20306561,20306561,HOUSE,HOUSE,Belgium,Flanders,Koning Boudewijnstraat,174,Lauwe,8930,50.7912598,3.1976219,3,173.0,None,18.0,FOR_SALE,,269000.0,,False,C,,GOOD,1986.0,,,,,11.0,INSTALLED,,,,,,,,18.0,True,,,True,,False,,,
https://www.immoweb.be/en/classified/house/for-sale/wijgmaal/3018/20303717,20303717,HOUSE,HOUSE,Belgium,Flanders,Wakkerzeelsebaan,33,Wijgmaal,3018,50.93016309999999,4.6901847,3,168.0,None,16.0,FOR_SALE,,315000.0,,False,F,,TO_RENOVATE,1983.0,,,,,11.0,INSTALLED,,,,,,,,22.0,True,,,True,,False,,,
https://www.immoweb.be/en/classified/house/for-sale/zandvliet/2040/20306540,20306540,HOUSE,HOUSE,Belgium,Flanders,Walenhoek,92,Zandvliet,2040,51.3587816,4.3096743,3,114.0,None,12.0,FOR_SALE,,324000.0,,,C,,GOOD,1918.0,,,,,9.0,INSTALLED,,,,,,,,22.0,True,True,135.0,,,False,,,
https://www.immoweb.be/en/classified/house/for-sale/ledeberg/9050/20305985,20305985,HOUSE,HOUSE,Belgium,Flanders,Posthoornstraat,61,Ledeberg,9050,51.04168199999999,3.7426386,4,200.0,None,10.0,FOR_SALE,,350000.0,,,F,,TO_RENOVATE,1931.0,2.0,3.0,6.0,,10.0,,,,,,,,,40.0,True,True,25.0,,,False,,,
https://www.immoweb.be/en/classified/house/for-sale/antwerpen/2050/20307874,20307874,HOUSE,HOUSE,Belgium,Flanders,Tijl Uilenspiegellaan,41,ANTWERPEN,2050,51.22983869999999,4.3807456,3,160.0,None,,FOR_SALE,,399000.0,,,C,,GOOD,1962.0,2.0,2.0,,,7.0,INSTALLED,,,,,,,,36.0,True,True,90.0,True,4.0,False,,,
https://www.immoweb.be/en/classified/house/for-sale/wezembeek-oppem/1970/20304664,20304664,HOUSE,HOUSE,Belgium,Flanders,Avenue d'Ophem,139,Wezembeek-oppem,1970,50.8415135,4.479820699999999,4,201.0,None,15.0,FOR_SALE,,699000.0,,False,E,,TO_BE_DONE_UP,1930.0,4.0,3.0,9.0,False,21.0,NOT_INSTALLED,,,,,,,,,,True,463.0,,,False,,None,
https://www.immoweb.be/en/classified/house/for-sale/berchem-sainte-agathe/1082/20298161,20298161,HOUSE,HOUSE,Belgium,Brussels,Avenue de la Basilique,127,Berchem-Sainte-Agathe,1082,50.8643967,4.3069749,3,240.0,None,,FOR_SALE,,495000.0,,False,E,,GOOD,1920.0,2.0,2.0,6.0,False,14.0,INSTALLED,,,,,,,,30.0,True,True,50.0,True,13.0,False,,,
https://www.immoweb.be/en/classified/house/for-sale/kruisem/9750/20302742,20302742,HOUSE,HOUSE,Belgium,Flanders,Omgangstraat,76,Kruisem,9750,50.901856,3.6617888,3,140.0,None,18.0,FOR_SALE,,248500.0,,False,D,,TO_RENOVATE,1961.0,3.0,4.0,7.0,,16.0,,,,,,,,,36.0,True,,,True,,False,,,
https://www.immoweb.be/en/classified/house/for-sale/wilrijk/2610/20304265,20304265,HOUSE,HOUSE,Belgium,Flanders,Edenlaan,35,WILRIJK,2610,51.15320269999999,4.3889157,3,168.0,None,,FOR_SALE,,440000.0,,,C,,GOOD,1970.0,2.0,,,,8.0,INSTALLED,,,,,,,,,,True,86.0,,,True,,None,
https://www.immoweb.be/en/classified/house/for-sale/roeselare/8800/20300662,20300662,HOUSE,HOUSE,Belgium,Flanders,Stationsstraat,10,Roeselare,8800,51.0846601,3.448582,4,334.0,None,22.0,FOR_SALE,,445000.0,,False,B,,GOOD,,,,,,21.0,INSTALLED,,,,,,,,16.0,True,True,75.0,True,49.0,False,,,
https://www.immoweb.be/en/classified/house/for-sale/woluwe-saint-lambert/1200/20305894,20305894,HOUSE,HOUSE,Belgium,Brussels,rue Albert et Marie-Louise Servais-Kinet,32-36,Woluwe-Saint-Lambert,1200,50.8452145,4.4149236,5,298.0,None,,FOR_SALE,,995000.0,,False,A,,AS_NEW,2024.0,2.0,3.0,5.5,False,8.0,HYPER_EQUIPPED,,,,,,,,28.0,True,True,45.0,True,7.0,False,,,
https://www.immoweb.be/en/classified/house/for-sale/herstal/4040/20301271,20301271,HOUSE,HOUSE,Belgium,Wallonie,Rue Thier des Monts,150,Herstal,4040,50.669833,5.6198334,3,103.0,None,,FOR_SALE,,239000.0,,False,D,,AS_NEW,,3.0,1.0,5.0,False,12.0,HYPER_EQUIPPED,,,,,,,,24.0,True,True,131.0,True,131.0,False,,,
https://www.immoweb.be/en/classified/house/for-sale/ekeren/2180/20301578,20301578,HOUSE,HOUSE,Belgium,Flanders,Pastorijveld,69,EKEREN,2180,51.27457709999999,4.4132988,4,120.0,None,,FOR_SALE,,329000.0,,,C,,JUST_RENOVATED,1931.0,2.0,,5.0,,,INSTALLED,,,,,,,,40.0,True,True,42.0,True,10.0,False,,,
https://www.immoweb.be/en/classified/house/for-sale/berlaar/2590/20305576,20305576,HOUSE,HOUSE,Belgium,Flanders,Azaleastraat,24,Berlaar,2590,51.1142939,4.6384318,3,177.0,None,17.0,FOR_SALE,,269000.0,,,D,,TO_BE_DONE_UP,1976.0,,3.0,,,,INSTALLED,,,,,,,,,,,,True,,False,,None,
https://www.immoweb.be/en/classified/house/for-sale/ninove/9406/20307632,20307632,HOUSE,HOUSE,Belgium,Flanders,Lebekestraat,8,NINOVE,9406,50.845115,3.994167099999999,3,156.0,None,,FOR_SALE,,315000.0,,,C,,GOOD,1918.0,,2.0,,,16.0,INSTALLED,,,,,,,,34.0,True,True,522.0,,,False,,,
https://www.immoweb.be/en/classified/house/for-sale/hombeek/2811/20307483,20307483,HOUSE,HOUSE,Belgium,Flanders,Zepstraat,67,Hombeek,2811,51.0090538,4.4242832,3,240.0,None,11.0,FOR_SALE,,399000.0,,,F,,TO_RENOVATE,1972.0,,,10.0,,11.0,INSTALLED,,,,,,,,41.0,True,True,400.0,,,False,,,
https://www.immoweb.be/en/classified/house/for-sale/zemst/1980/20288668,20288668,HOUSE,HOUSE,Belgium,Flanders,Kompenhofstraat,66,ZEMST,1980,50.9702065,4.451498,3,204.0,None,,FOR_SALE,,576000.0,,,B,,GOOD,2005.0,3.0,,7.0,,12.0,INSTALLED,,,,,,,,18.0,True,True,120.0,True,20.0,False,,,
https://www.immoweb.be/en/classified/house/for-sale/wilrijk/2610/20305331,20305331,HOUSE,HOUSE,Belgium,Flanders,Egied Segerslaan,42,WILRIJK,2610,51.1772667,4.3753687,3,132.0,None,,FOR_SALE,,299000.0,,,D,,AS_NEW,1935.0,2.0,,5.0,,18.0,,,,,,,,,28.0,True,True,40.0,,,False,,,
https://www.immoweb.be/en/classified/house/for-sale/heist-op-den-berg/2220/20305403,20305403,HOUSE,HOUSE,Belgium,Flanders,Lostraat,139,HEIST-OP-DEN-BERG,2220,51.05531999999999,4.7320083,4,212.0,None,,FOR_SALE,,394000.0,,,D,,GOOD,1954.0,4.0,,6.0,,9.0,SEMI_EQUIPPED,,,,,,,,,,,,,,False,,None,
https://www.immoweb.be/en/classified/house/for-sale/flobecq/7880/20304147,20304147,HOUSE,HOUSE,Belgium,Wallonie,Lumen,30,FLOBECQ,7880,50.764247,3.722272499999999,5,206.0,None,,FOR_SALE,,475000.0,,,D,,GOOD,1980.0,4.0,1.0,15.0,,14.0,INSTALLED,,,,,,,,35.0,True,,,,,True,,,
https://www.immoweb.be/en/classified/house/for-sale/arlon/6700/20301023,20301023,HOUSE,HOUSE,Belgium,Wallonie,Rue Emile Tandel,9,Arlon,6700,49.69703089999999,5.8103475,4,223.0,None,13.0,FOR_SALE,,579000.0,,,B,,AS_NEW,2016.0,2.0,3.0,11.0,False,10.0,INSTALLED,,,,,,,,35.0,True,True,321.0,True,36.0,False,,,
https://www.immoweb.be/en/classified/house/for-sale/brugelette/7940/20222306,20222306,HOUSE,HOUSE,Belgium,Wallonie,Rue des Combattants,51,BRUGELETTE,7940,50.5978674,3.8520788,2,140.0,None,,FOR_SALE,,139000.0,,,G,,TO_RENOVATE,1951.0,,,,,15.0,NOT_INSTALLED,,,,,,,,,,True,379.0,,,False,,None,
https://www.immoweb.be/en/classified/house/for-sale/etterbeek/1040/20307699,20307699,HOUSE,HOUSE,Belgium,Brussels,Avenue Auguste Rodin,33,Etterbeek,1040,50.8271454,4.379673599999999,4,233.0,None,,FOR_SALE,,875000.0,,False,G,,TO_BE_DONE_UP,1929.0,3.0,3.0,,,25.0,HYPER_EQUIPPED,,,,,,,,15.0,True,,,True,21.0,False,,,
https://www.immoweb.be/en/classified/house/for-sale/blaton/7321/20307695,20307695,HOUSE,HOUSE,Belgium,Wallonie,,,BLATON,7321,,,2,130.0,None,,FOR_SALE,,100000.0,,False,F,,,,2.0,,10.0,,13.0,SEMI_EQUIPPED,,,,,,,,22.0,True,,,True,150.0,False,,,
https://www.immoweb.be/en/classified/house/for-sale/jemeppe-sur-sambre/5190/20307671,20307671,HOUSE,HOUSE,Belgium,Wallonie,Rue François Hittelet,146,JEMEPPE-SUR-SAMBRE,5190,50.4605215,4.6639165,3,191.0,None,,FOR_SALE,,250000.0,,,None,,,,3.0,,,,,,,,,,,,,,,,,,,False,None,None,
https://www.immoweb.be/en/classified/house/for-sale/baudour/7331/20307668,20307668,HOUSE,HOUSE,Belgium,Wallonie,,,BAUDOUR,7331,,,2,115.0,None,,FOR_SALE,,150000.0,,False,F,,TO_RENOVATE,,2.0,,,,10.0,NOT_INSTALLED,,,,,,,,30.0,True,,,True,,False,,,
https://www.immoweb.be/en/classified/house/for-sale/baardegem/9310/20307656,20307656,HOUSE,HOUSE,Belgium,Flanders,Baardegem-Dorp,55,Baardegem,9310,50.95393240000001,4.1407102,0,169.0,None,1.0,FOR_SALE,,349000.0,,,E,,AS_NEW,1958.0,3.0,2.0,11.7,,,,,,,,,,,,,,,True,,False,None,None,
https://www.immoweb.be/en/classified/house/for-sale/fl%C3%89malle/4400/20307649,20307649,HOUSE,HOUSE,Belgium,Wallonie,Route de Souxhon,322,FLÉMALLE,4400,50.61128799999999,5.458790599999999,3,140.0,None,,FOR_SALE,,269000.0,,,F,,GOOD,1933.0,2.0,,,,7.0,INSTALLED,,,,,,,,30.0,True,True,289.0,True,38.0,False,,,
https://www.immoweb.be/en/classified/house/for-sale/zillebeke/8902/20307648,20307648,HOUSE,HOUSE,Belgium,Flanders,Blauwepoortstraat,97,Zillebeke,8902,50.8326247,2.915139,5,168.0,None,1.0,FOR_SALE,,219000.0,,,D,,TO_BE_DONE_UP,1957.0,4.0,,,,,,,,,,,,,,,,,True,,False,None,None,
https://www.immoweb.be/en/classified/house/for-sale/maarkedal/9680/20307645,20307645,HOUSE,HOUSE,Belgium,Flanders,Rattepoelstraat,10,Maarkedal,9680,50.8115216,3.6574694,4,215.0,None,1.0,FOR_SALE,,395000.0,,,D,,GOOD,1966.0,4.0,,,,26.0,,,,,,,,,40.0,True,,,,,False,,,
https://www.immoweb.be/en/classified/house/for-sale/kester/1755/20307642,20307642,HOUSE,HOUSE,Belgium,Flanders,,,KESTER,1755,,,3,220.0,None,,FOR_SALE,,528000.0,,,E,,TO_BE_DONE_UP,1920.0,,,18.0,,11.0,SEMI_EQUIPPED,,,,,,,,42.0,True,,,True,,True,,,
https://www.immoweb.be/en/classified/house/for-sale/tienen/3300/20307643,20307643,HOUSE,HOUSE,Belgium,Flanders,Verlatstraat,32,TIENEN,3300,50.8080479,4.9301884,2,135.0,None,,FOR_SALE,,279000.0,,,C,,GOOD,1930.0,2.0,,,,10.0,INSTALLED,,,,,,,,28.0,True,,,True,17.0,False,,,
https://www.immoweb.be/en/classified/house/for-sale/gr%C3%82ce-hollogne/4460/20199362,20199362,HOUSE,HOUSE,Belgium,Wallonie,Rue Haute Claire,18,GRÂCE-HOLLOGNE,4460,50.63952980000001,5.4758216,3,180.0,None,,FOR_SALE,,129000.0,135000.0,,None,,,,,2.0,,,,,,,,,,,,60.0,True,True,100.0,,,False,None,,
https://www.immoweb.be/en/classified/house/for-sale/fooz/4340/20111279,20111279,HOUSE,HOUSE,Belgium,Wallonie,Rue Joseph Delmotte,109,FOOZ,4340,50.681074,5.4366218,3,206.0,None,,FOR_SALE,,599000.0,650000.0,,A+,,,2019.0,4.0,,12.0,,22.0,HYPER_EQUIPPED,,,,,,,,15.0,True,True,790.0,True,95.0,False,,,
https://www.immoweb.be/en/classified/house/for-sale/boncelles/4100/20209869,20209869,HOUSE,HOUSE,Belgium,Wallonie,Rue du Tige Blanc,16,BONCELLES,4100,50.57277149999999,5.52998,3,184.0,None,,FOR_SALE,,239000.0,259000.0,,C,,TO_BE_DONE_UP,1949.0,2.0,,7.0,,25.0,INSTALLED,,,,,,,,25.0,True,True,280.0,,,False,,,
https://www.immoweb.be/en/classified/house/for-sale/gr%C3%82ce-hollogne/4460/20199360,20199360,HOUSE,HOUSE,Belgium,Wallonie,Rue Haute Claire,18,GRÂCE-HOLLOGNE,4460,50.63952980000001,5.4758216,3,180.0,None,,FOR_SALE,,129000.0,135000.0,,None,,,,,2.0,,,,,,,,,,,,60.0,True,,,,,False,None,,
https://www.immoweb.be/en/classified/house/for-sale/gent/9000/20307640,20307640,HOUSE,HOUSE,Belgium,Flanders,Schaliestraat,8,Gent,9000,51.0624432,3.7042545,4,145.0,None,11.0,FOR_SALE,,345000.0,,,C,,GOOD,1963.0,2.0,4.0,5.0,,10.0,,,,,,,,,35.0,True,True,38.0,,,False,,,
https://www.immoweb.be/en/classified/house/for-sale/beersel/1652/20300584,20300584,HOUSE,HOUSE,Belgium,Flanders,Braambessenlaan,5,Beersel,1652,50.7484348,4.3272719,5,204.0,None,,FOR_SALE,,660000.0,,False,D,,GOOD,1959.0,4.0,,,False,13.0,HYPER_EQUIPPED,,,,,,,,48.0,True,True,1100.0,True,20.0,False,,,
https://www.immoweb.be/en/classified/house/for-sale/kalmthout/2920/20299969,20299969,HOUSE,HOUSE,Belgium,Flanders,Kijkuitstraat,59,Kalmthout,2920,51.3783554,4.4668924,4,169.0,None,15.0,FOR_SALE,,349000.0,,,E,,TO_RENOVATE,1936.0,,,,,17.0,INSTALLED,,,,,,,,,,True,476.0,,,False,,None,
https://www.immoweb.be/en/classified/house/for-sale/berchem/2600/20300665,20300665,HOUSE,HOUSE,Belgium,Flanders,Vredestraat,78,BERCHEM,2600,51.1957112,4.4238103,3,188.0,None,,FOR_SALE,,599000.0,,,B,,GOOD,1918.0,,2.0,5.0,,,INSTALLED,,,,,,,,45.0,True,,,True,24.0,False,,,
https://www.immoweb.be/en/classified/house/for-sale/kontich/2550/20300051,20300051,HOUSE,HOUSE,Belgium,Flanders,Antwerpsesteenweg,31,Kontich,2550,51.1364358,4.4477063,4,240.0,None,18.0,FOR_SALE,,759000.0,,False,C,,GOOD,1903.0,3.0,,,,14.0,HYPER_EQUIPPED,,,,,,,,30.0,True,,,,,False,,,
https://www.immoweb.be/en/classified/house/for-sale/zottegem/9620/20293542,20293542,HOUSE,HOUSE,Belgium,Flanders,Sint-Andriessteenweg,177,Zottegem,9620,50.86828140000001,3.7897975,4,236.0,None,19.0,FOR_SALE,,469000.0,,False,B,,GOOD,1938.0,3.0,4.0,10.0,,,,,,,,,,,31.0,True,,,True,,False,None,,
https://www.immoweb.be/en/classified/house/for-sale/wanfercee-baulet/6224/20306338,20306338,HOUSE,HOUSE,Belgium,Wallonie,rue Edouard Baillon,6,WANFERCÉE-BAULET,6224,50.47140950000001,4.585560699999999,3,,None,,FOR_SALE,,149900.0,,,G,,TO_RENOVATE,,3.0,2.0,,,6.0,SEMI_EQUIPPED,,,,,,,,38.0,True,True,139.0,True,,False,,,
https://www.immoweb.be/en/classified/house/for-sale/grace-hollogne/4460/20306032,20306032,HOUSE,HOUSE,Belgium,Wallonie,Rue Mahay,10,Grâce-Hollogne,4460,50.6405649,5.4734313,4,137.0,None,,FOR_SALE,,239000.0,,False,C,,AS_NEW,1970.0,2.0,3.0,6.0,False,15.0,INSTALLED,,,,,,,,15.0,True,True,112.0,True,20.0,False,,,
https://www.immoweb.be/en/classified/house/for-sale/reet/2840/20304655,20304655,HOUSE,HOUSE,Belgium,Flanders,Molenstraat,17,Reet,2840,51.1007876,4.410769999999999,2,168.0,None,11.0,FOR_SALE,,299000.0,,False,B,,GOOD,,2.0,,,,24.0,,,,,,,,,,,,,True,,False,,None,
https://www.immoweb.be/en/classified/house/for-sale/berchem-sainte-agathe/1082/20305780,20305780,HOUSE,HOUSE,Belgium,Brussels,Rue du Jardinage,80,Berchem-sainte-agathe,1082,50.85668769999999,4.2937064,4,265.0,None,14.0,FOR_SALE,,669000.0,,False,D,,AS_NEW,1989.0,3.0,3.0,5.4,False,,HYPER_EQUIPPED,,,,,,,,,,True,280.0,True,62.0,False,,None,
https://www.immoweb.be/en/classified/house/for-sale/holsbeek/3221/20305884,20305884,HOUSE,HOUSE,Belgium,Flanders,Kriesberg,62,Holsbeek,3221,50.9487762,4.864201899999999,4,289.0,None,1.0,FOR_SALE,,690000.0,,,B,,GOOD,1977.0,4.0,,17.0,True,,,,,,,,,,,,,,,,True,None,None,
https://www.immoweb.be/en/classified/house/for-sale/musson-mussyla-ville/6750/20283736,20283736,HOUSE,HOUSE,Belgium,Wallonie,Rue du Moulin,2,Musson Mussyla-Ville,6750,49.5703432,5.6625969,3,180.0,None,,FOR_SALE,,99000.0,,,G,,TO_RENOVATE,1850.0,2.0,2.0,,,12.0,SEMI_EQUIPPED,,,,,,,,,,,,,,False,,None,
https://www.immoweb.be/en/classified/house/for-sale/oostakker/9041/20296943,20296943,HOUSE,HOUSE,Belgium,Flanders,Hof van Oombergen,16,Oostakker,9041,51.0729055,3.8016655,3,210.0,None,13.0,FOR_SALE,,698000.0,,,A,,GOOD,2021.0,,,,,15.0,INSTALLED,,,,,,,,42.0,True,True,500.0,True,40.0,False,,,
https://www.immoweb.be/en/classified/house/for-sale/destelbergen/9070/20296941,20296941,HOUSE,HOUSE,Belgium,Flanders,Hof van Oombergen,16,Destelbergen,9070,51.0729055,3.8016655,3,210.0,None,13.0,FOR_SALE,,698000.0,,,A,,GOOD,2021.0,,,,,15.0,INSTALLED,,,,,,,,42.0,True,True,500.0,True,40.0,False,,,
https://www.immoweb.be/en/classified/house/for-sale/uccle/1180/20297727,20297727,HOUSE,HOUSE,Belgium,Brussels,Chaussée de Drogenbos,46,Uccle,1180,50.7871727,4.328011399999999,6,294.0,None,,FOR_SALE,,950000.0,,False,G,,GOOD,1933.0,3.0,2.0,12.0,False,9.0,INSTALLED,,,,,,,,32.0,True,True,240.0,True,120.0,False,,,
https://www.immoweb.be/en/classified/house/for-sale/brakel/9660/20304140,20304140,HOUSE,HOUSE,Belgium,Flanders,Brusselsestraat,12,BRAKEL,9660,50.80553519999999,3.7690676,4,171.0,None,,FOR_SALE,,235000.0,,,B,,GOOD,1899.0,2.0,,,,10.0,SEMI_EQUIPPED,,,,,,,,15.0,True,,,,,False,,,
https://www.immoweb.be/en/classified/house/for-sale/liedekerke/1770/20304844,20304844,HOUSE,HOUSE,Belgium,Flanders,Muilenstraat,79,LIEDEKERKE,1770,50.8781354,4.0966925,3,118.0,None,,FOR_SALE,,299000.0,,,C,,GOOD,1958.0,2.0,2.0,,,,INSTALLED,,,,,,,,,,,,,,False,,None,
https://www.immoweb.be/en/classified/house/for-sale/grez-doiceau/1390/20295340,20295340,HOUSE,HOUSE,Belgium,Wallonie,Avenue Félix Lacourt,191,Grez-Doiceau,1390,50.7185584,4.7221676,3,157.0,None,,FOR_SALE,,449000.0,,,E,,JUST_RENOVATED,,4.0,2.0,,,8.0,INSTALLED,,,,,,,,30.0,True,,,True,,False,,,
https://www.immoweb.be/en/classified/house/for-sale/seraing/4102/20299838,20299838,HOUSE,HOUSE,Belgium,Wallonie,Rue du Loup,7,Seraing,4102,50.59948,5.546326,3,108.0,None,,FOR_SALE,,135000.0,,False,E,,TO_RENOVATE,1850.0,2.0,1.0,,False,12.0,INSTALLED,,,,,,,,17.0,True,,,True,32.0,False,,,
https://www.immoweb.be/en/classified/house/for-sale/genappe/1470/20299843,20299843,HOUSE,HOUSE,Belgium,Wallonie,Avenue des Combattants,212,Genappe,1470,50.6261504,4.5297522,2,116.0,None,,FOR_SALE,,209000.0,,False,E,,GOOD,1914.0,2.0,2.0,,False,,INSTALLED,,,,,,,,,,True,382.0,True,25.0,False,,None,
https://www.immoweb.be/en/classified/house/for-sale/borgerhout/2140/20301230,20301230,HOUSE,HOUSE,Belgium,Flanders,Jozef Posenaerstraat,23,BORGERHOUT,2140,51.2126557,4.4507469,2,120.0,None,,FOR_SALE,,239900.0,,,F,,TO_RENOVATE,1936.0,2.0,1.0,5.0,,11.0,NOT_INSTALLED,,,,,,,,18.0,True,True,50.0,,,False,,,
https://www.immoweb.be/en/classified/house/for-sale/merelbeke/9820/20293544,20293544,HOUSE,HOUSE,Belgium,Flanders,Gaversesteenweg,771,Merelbeke,9820,50.961299,3.701672,4,200.0,None,17.0,FOR_SALE,,365000.0,,False,F,,TO_RENOVATE,1963.0,4.0,,10.0,,14.0,,,,,,,,,18.0,True,,,True,,False,,,
https://www.immoweb.be/en/classified/house/for-sale/li%C3%A8ge%20ch%C3%AAn%C3%A9e/4032/20307633,20307633,HOUSE,HOUSE,Belgium,Wallonie,Rue de Gaillarmont,411,Liège Chênée,4032,50.6208052,5.6263046,2,85.0,None,,FOR_SALE,,175000.0,,False,G,,TO_RENOVATE,,4.0,2.0,,False,,NOT_INSTALLED,,,,,,,,,,True,250.0,True,,False,,None,
https://www.immoweb.be/en/classified/house/for-sale/ninove/9406/20307632,20307632,HOUSE,HOUSE,Belgium,Flanders,Lebekestraat,8,NINOVE,9406,50.845115,3.994167099999999,3,156.0,None,,FOR_SALE,,315000.0,,,C,,GOOD,1918.0,,2.0,,,16.0,INSTALLED,,,,,,,,34.0,True,True,522.0,,,False,,,
https://www.immoweb.be/en/classified/house/for-sale/mere/9420/20287573,20287573,HOUSE,HOUSE,Belgium,Flanders,Cauwenbergstraat,75,Mere,9420,50.9194279,3.9651501,3,300.0,None,17.0,FOR_SALE,,549000.0,,,C,,JUST_RENOVATED,1930.0,,,,,52.0,INSTALLED,,,,,,,,15.0,True,,,True,,False,,,
https://www.immoweb.be/en/classified/house/for-sale/mere/9420/20287575,20287575,HOUSE,HOUSE,Belgium,Flanders,Sint-Bavoweg,34,Mere,9420,50.9215972,3.9729798,3,147.0,None,17.0,FOR_SALE,,390000.0,,False,,,GOOD,2024.0,,,,,13.0,INSTALLED,,,,,,,,33.0,True,,,True,22.0,False,,,
https://www.immoweb.be/en/classified/house/for-sale/zottegem/9620/20287412,20287412,HOUSE,HOUSE,Belgium,Flanders,Sonseindestraat,72,Zottegem,9620,50.902896,3.7721805,3,230.0,None,12.0,FOR_SALE,,369000.0,,False,F,,TO_RENOVATE,1956.0,,,,,11.0,INSTALLED,,,,,,,,42.0,True,,,,,False,,,
https://www.immoweb.be/en/classified/house/for-sale/aalst%20%289300%29/9300/20287578,20287578,HOUSE,HOUSE,Belgium,Flanders,Moorselbaan,354,Aalst (9300),9300,50.9448866,4.066671599999999,3,251.0,None,14.0,FOR_SALE,,374900.0,,False,F,,GOOD,,,,,,20.0,INSTALLED,,,,,,,,28.0,True,,,,,False,,,
https://www.immoweb.be/en/classified/house/for-sale/haaltert/9450/20285238,20285238,HOUSE,HOUSE,Belgium,Flanders,Bruulstraat,39,Haaltert,9450,50.9052016,4.0018193,3,170.0,None,18.0,FOR_SALE,,343000.0,,False,F,,TO_BE_DONE_UP,1937.0,,,,,11.0,INSTALLED,,,,,,,,38.0,True,,,True,,False,,,
https://www.immoweb.be/en/classified/house/for-sale/haaltert/9450/20285235,20285235,HOUSE,HOUSE,Belgium,Flanders,Bruulstraat,39,Haaltert,9450,50.9052016,4.0018193,3,170.0,None,18.0,FOR_SALE,,343000.0,,False,F,,TO_BE_DONE_UP,1937.0,,,,,11.0,INSTALLED,,,,,,,,38.0,True,,,True,,False,,,
https://www.immoweb.be/en/classified/house/for-sale/nieuwerkerken%20%289320%29/9320/20282602,20282602,HOUSE,HOUSE,Belgium,Flanders,Kerkveldweg,28,Nieuwerkerken (9320),9320,50.9255629,4.007248,2,238.0,None,14.0,FOR_SALE,,299000.0,,False,C,,TO_BE_DONE_UP,,,,,,16.0,INSTALLED,,,,,,,,28.0,True,,,True,,False,,,
https://www.immoweb.be/en/classified/house/for-sale/erondegem/9420/20282603,20282603,HOUSE,HOUSE,Belgium,Flanders,Hoogstraat,18a,Erondegem,9420,50.9395379,3.9566384,3,152.0,None,11.0,FOR_SALE,,386643.0,,False,,,GOOD,2024.0,,,,,8.0,INSTALLED,,,,,,,,33.0,True,,,,,False,,,
https://www.immoweb.be/en/classified/house/for-sale/erondegem/9420/20282604,20282604,HOUSE,HOUSE,Belgium,Flanders,Hoogstraat,18a,Erondegem,9420,50.9395379,3.9566384,3,138.0,None,11.0,FOR_SALE,,362775.0,,False,,,GOOD,2024.0,,,,,8.0,INSTALLED,,,,,,,,38.0,True,,,,,False,,,
https://www.immoweb.be/en/classified/house/for-sale/haaltert/9450/20270093,20270093,HOUSE,HOUSE,Belgium,Flanders,Berenhoek,24,Haaltert,9450,50.8733999,3.9574296,3,230.0,None,16.0,FOR_SALE,,340000.0,,,E,,GOOD,,,,,,,,,,,,,,,,,,,True,,False,None,None,
https://www.immoweb.be/en/classified/house/for-sale/denderhoutem/9450/20270098,20270098,HOUSE,HOUSE,Belgium,Flanders,Nieuwstraat,68,Denderhoutem,9450,50.8695447,4.010492,6,,None,19.0,FOR_SALE,,325000.0,,False,F,,TO_BE_DONE_UP,1938.0,,,11.0,,,,,,,,,,,,,,,True,,False,None,None,
https://www.immoweb.be/en/classified/house/for-sale/sint-gillis-dendermonde/9200/20290747,20290747,HOUSE,HOUSE,Belgium,Flanders,Bareelstraat,25,Sint-Gillis-Dendermonde,9200,51.0227703,4.1140354,2,140.0,None,9.0,FOR_SALE,,224900.0,,False,D,,GOOD,,,,,,16.0,INSTALLED,,,,,,,,25.0,True,,,True,,False,,,
https://www.immoweb.be/en/classified/house/for-sale/sint-joris-weert/3051/20255700,20255700,HOUSE,HOUSE,Belgium,Flanders,Groot Neerveld,52,Sint-Joris-Weert,3051,50.8007321,4.6491203,3,200.0,None,16.0,FOR_SALE,,549000.0,,False,,,AS_NEW,2022.0,,,8.0,,12.0,,,,,,,,,30.0,True,,,True,,False,,,
https://www.immoweb.be/en/classified/house/for-sale/nieuwerkerken%20%289320%29/9320/20282605,20282605,HOUSE,HOUSE,Belgium,Flanders,Verenigde Natiesstraat,18,Nieuwerkerken (9320),9320,50.925146,4.013175599999999,3,174.0,None,15.0,FOR_SALE,,349000.0,,False,F,,TO_BE_DONE_UP,1962.0,,,7.0,,11.0,INSTALLED,,,,,,,,,,,,True,,False,,None,
https://www.immoweb.be/en/classified/house/for-sale/hofstade%20%289308%29/9308/20283796,20283796,HOUSE,HOUSE,Belgium,Flanders,Blektestraat,48,Hofstade (9308),9308,50.95787499999999,4.0308068,3,147.0,None,12.0,FOR_SALE,,315000.0,,False,B,,GOOD,,,,8.0,,18.0,INSTALLED,,,,,,,,24.0,True,,,True,35.0,False,,,
https://www.immoweb.be/en/classified/house/for-sale/aalst%20%289300%29/9300/20242725,20242725,HOUSE,HOUSE,Belgium,Flanders,Binnenstraat,107,Aalst (9300),9300,50.9448669,4.049500099999999,4,146.0,None,13.0,FOR_SALE,,269500.0,,False,B,,GOOD,1918.0,,,,,11.0,SEMI_EQUIPPED,,,,,,,,32.0,True,,,True,10.0,False,,,
https://www.immoweb.be/en/classified/house/for-sale/nieuwerkerken%20%289320%29/9320/20241078,20241078,HOUSE,HOUSE,Belgium,Flanders,Edixvelde,84,Nieuwerkerken (9320),9320,50.9219756,3.987221,3,210.0,None,17.0,FOR_SALE,,374900.0,,False,C,,GOOD,,,,9.0,,16.0,INSTALLED,,,,,,,,32.0,True,True,550.0,True,20.0,False,,,
https://www.immoweb.be/en/classified/house/for-sale/mere/9420/20229687,20229687,HOUSE,HOUSE,Belgium,Flanders,Sint-Bavoweg,36,Mere,9420,50.921536,3.9730429,3,150.0,None,17.0,FOR_SALE,,395000.0,,False,,,GOOD,2024.0,,,,,13.0,INSTALLED,,,,,,,,36.0,True,,,True,24.0,False,,,
https://www.immoweb.be/en/classified/house/for-sale/adegem/9991/20306606,20306606,HOUSE,HOUSE,Belgium,Flanders,Waleweg,10,Adegem,9991,51.2063266,3.4814546,4,170.0,None,15.0,FOR_SALE,,325000.0,,,C,,TO_RENOVATE,1971.0,,,,,13.0,,,,,,,,,42.0,True,,,,,False,,,
https://www.immoweb.be/en/classified/house/for-sale/bambrugge/9420/20306550,20306550,HOUSE,HOUSE,Belgium,Flanders,Egemstraat,25,Bambrugge,9420,50.92376059999999,3.9304566,2,140.0,None,,FOR_SALE,,339000.0,,,F,,TO_BE_DONE_UP,1984.0,4.0,2.0,10.0,False,14.0,INSTALLED,,,,,,,,32.0,True,,,True,20.0,False,,,
https://www.immoweb.be/en/classified/house/for-sale/maarkedal/9680/20307645,20307645,HOUSE,HOUSE,Belgium,Flanders,Rattepoelstraat,10,Maarkedal,9680,50.8115216,3.6574694,4,215.0,None,1.0,FOR_SALE,,395000.0,,,D,,GOOD,1966.0,4.0,,,,26.0,,,,,,,,,40.0,True,,,,,False,,,
https://www.immoweb.be/en/classified/house/for-sale/gent/9000/20305736,20305736,HOUSE,HOUSE,Belgium,Flanders,Zonder-Naamstraat,28 - 30,Gent,9000,51.0575744,3.7353456,7,340.0,None,,FOR_SALE,,495000.0,,False,B,,GOOD,1850.0,2.0,3.0,,False,21.0,HYPER_EQUIPPED,,,,,,,,42.0,True,,,True,21.0,False,,,
https://www.immoweb.be/en/classified/house/for-sale/merelbeke/9820/20305916,20305916,HOUSE,HOUSE,Belgium,Flanders,Esdreef,32,Merelbeke,9820,50.9820313,3.7436732,3,240.0,None,15.0,FOR_SALE,,669000.0,,False,B,,GOOD,1992.0,,,,,14.0,,,,,,,,,34.0,True,,,,,False,,,
https://www.immoweb.be/en/classified/house/for-sale/seraing/4100/20297764,20297764,HOUSE,HOUSE,Belgium,Wallonie,Rue de l'Industrie,109,Seraing,4100,50.611701,5.5077432,6,217.0,None,,FOR_SALE,,199900.0,,False,C,,TO_BE_DONE_UP,1950.0,2.0,2.0,6.0,False,16.0,INSTALLED,,,,,,,,24.0,True,True,136.0,True,28.0,False,,,
https://www.immoweb.be/en/classified/house/for-sale/berendrecht/2040/20296919,20296919,HOUSE,HOUSE,Belgium,Flanders,Bosstraat,14,Berendrecht,2040,51.34838569999999,4.325404499999999,3,237.0,None,15.0,FOR_SALE,,395000.0,,,C,,GOOD,1899.0,,,,,43.0,INSTALLED,,,,,,,,41.0,True,True,384.0,,,False,,,
https://www.immoweb.be/en/classified/house/for-sale/sint-amandsberg/9040/20296958,20296958,HOUSE,HOUSE,Belgium,Flanders,Victor Braeckmanlaan,171,Sint-Amandsberg,9040,51.0604378,3.755017799999999,0,234.0,None,10.0,FOR_SALE,,420000.0,,False,D,,GOOD,1936.0,,,,,,,,,,,,,,,,True,130.0,True,8.0,False,None,None,
https://www.immoweb.be/en/classified/house/for-sale/seraing/4100/20292095,20292095,HOUSE,HOUSE,Belgium,Wallonie,Place Jean Volders,10,Seraing,4100,50.5885675,5.5135203,2,57.0,None,,FOR_SALE,,120000.0,,False,G,,JUST_RENOVATED,1950.0,3.0,1.0,4.0,False,,NOT_INSTALLED,,,,,,,,9.0,True,True,110.0,True,7.0,False,,,
https://www.immoweb.be/en/classified/house/for-sale/morkhoven/2200/20305402,20305402,HOUSE,HOUSE,Belgium,Flanders,Molenstraat,94,MORKHOVEN,2200,51.119514,4.817031,2,111.0,None,,FOR_SALE,,339000.0,,,B,,GOOD,1965.0,3.0,,,,,,,,,,,,,,,,,,,False,None,None,
https://www.immoweb.be/en/classified/house/for-sale/wilrijk/2610/20304826,20304826,HOUSE,HOUSE,Belgium,Flanders,Schijfwerpersstraat,123,WILRIJK,2610,51.1822472,4.3839268,4,170.0,None,,FOR_SALE,,385000.0,,,C,,GOOD,1930.0,2.0,,5.0,,,INSTALLED,,,,,,,,,,True,30.0,,,False,,None,
https://www.immoweb.be/en/classified/house/for-sale/ixelles/1050/20303815,20303815,HOUSE,HOUSE,Belgium,Brussels,Emile Banningstraat,59,Ixelles,1050,50.8189813,4.38272,4,230.0,None,,FOR_SALE,,930000.0,,False,E,,AS_NEW,1901.0,2.0,2.0,,False,12.0,HYPER_EQUIPPED,,,,,,,,17.0,True,True,150.0,True,20.0,False,,,
https://www.immoweb.be/en/classified/house/for-sale/waregem/8790/20296808,20296808,HOUSE,HOUSE,Belgium,Flanders,Hugo Verrieststraat,53,WAREGEM,8790,50.8909593,3.4162244,2,130.0,None,,FOR_SALE,,299000.0,,,D,,,1955.0,3.0,,6.0,,15.0,INSTALLED,,,,,,,,27.0,True,True,47.0,True,53.0,False,,,
https://www.immoweb.be/en/classified/house/for-sale/nivelles/1400/20295773,20295773,HOUSE,HOUSE,Belgium,Wallonie,Chaussee de Braine le Comte,28,Nivelles,1400,50.598617,4.3082418,3,165.0,None,16.0,FOR_SALE,,335000.0,,False,B,,GOOD,2007.0,2.0,2.0,5.8,False,19.0,INSTALLED,,,,,,,,23.0,True,,,True,17.0,False,,,
https://www.immoweb.be/en/classified/house/for-sale/bertrix/6880/20301594,20301594,HOUSE,HOUSE,Belgium,Wallonie,Rue de Bernifa,19,Bertrix,6880,49.8981682,5.211418500000001,4,145.0,None,,FOR_SALE,,49000.0,,False,D,,GOOD,,3.0,3.0,,False,13.0,SEMI_EQUIPPED,,,,,,,,24.0,True,True,52.0,True,8.0,False,,,
https://www.immoweb.be/en/classified/house/for-sale/seraing/4101/20298713,20298713,HOUSE,HOUSE,Belgium,Wallonie,Rue Burnonville,34,Seraing,4101,50.6172259,5.495950300000001,5,181.0,None,,FOR_SALE,,289000.0,,False,E,,GOOD,1918.0,2.0,2.0,9.0,False,22.0,INSTALLED,,,,,,,,46.0,True,,,True,80.0,False,,,
https://www.immoweb.be/en/classified/house/for-sale/arlon/6700/20283722,20283722,HOUSE,HOUSE,Belgium,Wallonie,Markewee,1,Arlon,6700,49.6407996,5.7758163,4,150.0,None,,FOR_SALE,,395000.0,,,D,,TO_BE_DONE_UP,1967.0,4.0,2.0,,,8.0,SEMI_EQUIPPED,,,,,,,,30.0,True,True,1200.0,True,20.0,False,,,
https://www.immoweb.be/en/classified/house/for-sale/aubange-athus/6791/20283727,20283727,HOUSE,HOUSE,Belgium,Wallonie,Rue Floréal,40,Aubange Athus,6791,49.5606985,5.8344147,3,160.0,None,,FOR_SALE,,430000.0,,,D,,GOOD,1952.0,4.0,2.0,,,16.0,,,,,,,,,22.0,True,True,750.0,True,60.0,False,,,
https://www.immoweb.be/en/classified/house/for-sale/erpe/9420/20214396,20214396,HOUSE,HOUSE,Belgium,Flanders,Rooseveltlaan,92,Erpe,9420,50.92841809999999,3.9737852,2,135.0,None,11.0,FOR_SALE,,249000.0,,False,C,,GOOD,,,,,,20.0,INSTALLED,,,,,,,,36.0,True,,,True,,False,,,
https://www.immoweb.be/en/classified/house/for-sale/aalst%20%289300%29/9300/20211017,20211017,HOUSE,HOUSE,Belgium,Flanders,Hendrik Consciencestraat,17,Aalst (9300),9300,50.9558528,4.0339752,5,319.0,None,19.0,FOR_SALE,,299000.0,,False,C,,TO_BE_DONE_UP,,,,,,15.0,INSTALLED,,,,,,,,35.0,True,,,,,False,,,
https://www.immoweb.be/en/classified/house/for-sale/hofstade%20%289308%29/9308/20211018,20211018,HOUSE,HOUSE,Belgium,Flanders,Hendrik Consciencestraat,17,Hofstade (9308),9308,50.9558528,4.0339752,5,319.0,None,19.0,FOR_SALE,,299000.0,,False,C,,TO_BE_DONE_UP,,,,,,15.0,INSTALLED,,,,,,,,35.0,True,,,,,False,,,
https://www.immoweb.be/en/classified/house/for-sale/welle/9473/20267372,20267372,HOUSE,HOUSE,Belgium,Flanders,Kortestraat,121,Welle,9473,50.8995846,4.0550805,3,154.0,None,15.0,FOR_SALE,,319000.0,,False,D,,TO_BE_DONE_UP,1958.0,,,,,17.0,SEMI_EQUIPPED,,,,,,,,22.0,True,,,True,,False,,,
https://www.immoweb.be/en/classified/house/for-sale/aalst%20%289300%29/9300/20172396,20172396,HOUSE,HOUSE,Belgium,Flanders,Naarstigheidstraat,103,Aalst (9300),9300,50.9411992,4.0187119,6,330.0,None,20.0,FOR_SALE,,345000.0,,False,F,,TO_BE_DONE_UP,1958.0,,,,,12.0,INSTALLED,,,,,,,,35.0,True,,,True,,False,,,
https://www.immoweb.be/en/classified/house/for-sale/idegem/9506/20201136,20201136,HOUSE,HOUSE,Belgium,Flanders,Ninoofsestraat,85,Idegem,9506,50.8025747,3.9257215,2,84.0,None,9.0,FOR_SALE,,149000.0,,False,F,,TO_RENOVATE,,,,,,,SEMI_EQUIPPED,,,,,,,,,,,,,,False,,None,
https://www.immoweb.be/en/classified/house/for-sale/herzele/9550/20201138,20201138,HOUSE,HOUSE,Belgium,Flanders,Wolvenstraat,14,Herzele,9550,50.8822286,3.8860991,2,114.0,None,11.0,FOR_SALE,,189000.0,,False,F,,TO_RENOVATE,,,,,,,INSTALLED,,,,,,,,,,,,True,,False,,None,
https://www.immoweb.be/en/classified/house/for-sale/geraardsbergen/9500/20201141,20201141,HOUSE,HOUSE,Belgium,Flanders,Polderstraat,8,Geraardsbergen,9500,50.7680148,3.8766311,2,72.0,None,12.0,FOR_SALE,,129000.0,,False,F,,TO_BE_DONE_UP,,,,,,,SEMI_EQUIPPED,,,,,,,,,,,,,,False,,None,
https://www.immoweb.be/en/classified/house/for-sale/aalst%20%289300%29/9300/20172547,20172547,HOUSE,HOUSE,Belgium,Flanders,Naarstigheidstraat,103,Aalst (9300),9300,50.9411992,4.0187119,6,330.0,None,20.0,FOR_SALE,,345000.0,,False,F,,TO_BE_DONE_UP,1958.0,,,13.0,,12.0,INSTALLED,,,,,,,,35.0,True,,,True,,False,,,
https://www.immoweb.be/en/classified/house/for-sale/geraardsbergen/9500/20054474,20054474,HOUSE,HOUSE,Belgium,Flanders,Buizemontstraat,10,Geraardsbergen,9500,50.7707246,3.8833719,2,190.0,None,14.0,FOR_SALE,,189000.0,,False,F,,TO_RENOVATE,,,,,,11.0,NOT_INSTALLED,,,,,,,,24.0,True,,,True,8.0,False,,,
https://www.immoweb.be/en/classified/house/for-sale/edingen/7850/11320538,11320538,HOUSE,HOUSE,Belgium,Wallonie,Rue des 2 Ponts,C8,Edingen,7850,50.6810759,4.0722886,3,126.0,None,13.0,FOR_SALE,,360000.0,,,,,GOOD,2022.0,,,,,6.0,INSTALLED,,,,,,,,35.0,True,,,,,False,,,
https://www.immoweb.be/en/classified/house/for-sale/didim/09256/10694862,10694862,HOUSE,HOUSE,Turkey,,xxxx,x,Didim,09256,37.37609399999999,27.264729,4,,None,11.0,FOR_SALE,,480000.0,,,None,,,,,,,True,,,,,,,,,,,,,,,,False,None,None,None
https://www.immoweb.be/en/classified/house/for-sale/didim/09256/10694861,10694861,HOUSE,HOUSE,Turkey,,xxxx,x,Didim,09256,37.37609399999999,27.264729,4,,None,11.0,FOR_SALE,,470000.0,,,None,,,,,,,True,,,,,,,,,,,,,,,,False,None,None,None
https://www.immoweb.be/en/classified/house/for-sale/didim/09256/10694860,10694860,HOUSE,HOUSE,Turkey,,xxxx,x,Didim,09256,37.37609399999999,27.264729,3,,None,10.0,FOR_SALE,,410000.0,,,None,,,,,,,True,,,,,,,,,,,,,,,,False,None,None,None
https://www.immoweb.be/en/classified/house/for-sale/oosterzele/9860/20292127,20292127,HOUSE,HOUSE,Belgium,Flanders,Poststraat,46,Oosterzele,9860,50.9223051,3.7899441,3,147.0,None,,FOR_SALE,,455000.0,,False,A,,JUST_RENOVATED,1899.0,3.0,3.0,5.6,False,13.0,HYPER_EQUIPPED,,,,,,,,45.0,True,True,77.0,True,16.0,False,,,
https://www.immoweb.be/en/classified/house/for-sale/maldegem/9990/20306586,20306586,HOUSE,HOUSE,Belgium,Flanders,Kleitkalseide,31,Maldegem,9990,51.1861506,3.4537607,3,216.0,None,16.0,FOR_SALE,,280000.0,,False,F,,TO_RENOVATE,1962.0,,,,,11.0,,,,,,,,,28.0,True,,,,,False,,,
https://www.immoweb.be/en/classified/house/for-sale/roeselare/8800/20305881,20305881,HOUSE,HOUSE,Belgium,Flanders,Marie Curiestraat,18,Roeselare,8800,50.9387847,3.1451697,4,154.0,None,16.0,FOR_SALE,,379000.0,,False,A,,GOOD,,,,,,7.0,INSTALLED,,,,,,,,,,,,True,,False,,None,
https://www.immoweb.be/en/classified/house/for-sale/wichelen/9260/20301924,20301924,HOUSE,HOUSE,Belgium,Flanders,Paepestraat,112,WICHELEN,9260,50.9967462,3.9716987,3,251.0,None,,FOR_SALE,,395000.0,,,D,,TO_RENOVATE,1976.0,,,,,,,,,,,,,,,,,,,,False,None,None,
https://www.immoweb.be/en/classified/house/for-sale/lochristi/9080/20303680,20303680,HOUSE,HOUSE,Belgium,Flanders,Rozenlaan,5,Lochristi,9080,51.0949197,3.823282,4,250.0,None,13.0,FOR_SALE,,449000.0,,,D,,TO_RENOVATE,1980.0,,,,,,,,,,,,,,,,,,True,,False,None,None,
https://www.immoweb.be/en/classified/house/for-sale/puurs-sint-amands/2870/20305975,20305975,HOUSE,HOUSE,Belgium,Flanders,Liezelbroek,3,Puurs-Sint-Amands,2870,51.0585442,4.2833461,4,204.0,None,1.0,FOR_SALE,,549000.0,,,B,,AS_NEW,2009.0,4.0,,,,16.0,,,,,,,,,25.0,True,,,True,,False,,,
https://www.immoweb.be/en/classified/house/for-sale/borsbeke/9552/20305574,20305574,HOUSE,HOUSE,Belgium,Flanders,Pastorijstraat,13,Borsbeke,9552,50.9069182,3.8920984,5,396.0,None,19.0,FOR_SALE,,1085000.0,,False,B,,AS_NEW,1954.0,,,,True,,,,,,,,,,,,,,True,,False,None,None,
https://www.immoweb.be/en/classified/house/for-sale/bonheiden/2820/20290613,20290613,HOUSE,HOUSE,Belgium,Flanders,Veeweideweg,21,BONHEIDEN,2820,50.9849892,4.6233827,5,410.0,None,,FOR_SALE,,828000.0,,,D,,GOOD,1910.0,,2.0,33.0,,13.0,INSTALLED,,,,,,,,46.0,True,True,900.0,True,120.0,False,,,
https://www.immoweb.be/en/classified/house/for-sale/haacht/3150/20290611,20290611,HOUSE,HOUSE,Belgium,Flanders,Veeweideweg,21,HAACHT,3150,50.9849892,4.6233827,5,410.0,None,,FOR_SALE,,828000.0,,,D,,GOOD,1910.0,,2.0,33.0,,13.0,INSTALLED,,,,,,,,46.0,True,True,900.0,True,120.0,False,,,
https://www.immoweb.be/en/classified/house/for-sale/ronse/9600/20297839,20297839,HOUSE,HOUSE,Belgium,Flanders,Rode Broeckstraat,61,Ronse,9600,50.741301,3.6047496,3,145.0,None,,FOR_SALE,,215000.0,,False,A,,AS_NEW,1930.0,2.0,2.0,5.2,False,,HYPER_EQUIPPED,,,,,,,,,,,,True,11.0,False,,None,
https://www.immoweb.be/en/classified/house/for-sale/vilvoorde/1800/20295539,20295539,HOUSE,HOUSE,Belgium,Flanders,Kazernestraat,36,Vilvoorde,1800,50.9330377,4.424601900000001,3,140.0,None,,FOR_SALE,,299000.0,,False,E,,TO_BE_DONE_UP,1940.0,2.0,2.0,5.2,False,12.0,SEMI_EQUIPPED,,,,,,,,27.0,True,True,35.0,,,False,,,
https://www.immoweb.be/en/classified/house/for-sale/braine-lalleud/1420/20290123,20290123,HOUSE,HOUSE,Belgium,Wallonie,Chaussée d'Alsemberg,126,BRAINE-L'ALLEUD,1420,50.6881101,4.3687185,4,170.0,None,,FOR_SALE,,360000.0,,,C,,GOOD,1930.0,2.0,2.0,,,20.0,SEMI_EQUIPPED,,,,,,,,31.0,True,True,315.0,True,34.0,False,,,
https://www.immoweb.be/en/classified/house/for-sale/lebbeke/9280/20296979,20296979,HOUSE,HOUSE,Belgium,Flanders,Opwijksestraat,254,Lebbeke,9280,50.9863299,4.1506222,2,150.0,None,15.0,FOR_SALE,,365000.0,,,A,,GOOD,1960.0,,,4.0,,8.0,,,,,,,,,,,,,True,20.0,False,,None,
https://www.immoweb.be/en/classified/house/for-sale/engis/4480/20305023,20305023,HOUSE,HOUSE,Belgium,Wallonie,Rue Joseph Wauters,7,ENGIS,4480,50.5806164,5.403175699999999,4,138.0,None,,FOR_SALE,,155000.0,,,E,,TO_BE_DONE_UP,1918.0,3.0,,,,,SEMI_EQUIPPED,,,,,,,,27.0,True,True,116.0,True,32.0,False,,,
https://www.immoweb.be/en/classified/house/for-sale/ichtegem/8480/20302606,20302606,HOUSE,HOUSE,Belgium,Flanders,Zuidstraat,108,Ichtegem,8480,51.1066376,3.037656,4,122.0,None,15.0,FOR_SALE,,179000.0,,False,F,,TO_RENOVATE,1936.0,,,,,,SEMI_EQUIPPED,,,,,,,,,,,,True,,False,,None,
https://www.immoweb.be/en/classified/house/for-sale/aalst/9300/20303039,20303039,HOUSE,HOUSE,Belgium,Flanders,Denderstraat,4,AALST,9300,50.942866,4.0351446,2,119.0,None,,FOR_SALE,,179000.0,,,D,,TO_BE_DONE_UP,,2.0,4.0,,,,SEMI_EQUIPPED,,,,,,,,,,,,,,False,,None,
https://www.immoweb.be/en/classified/house/for-sale/mechelen/2800/20302774,20302774,HOUSE,HOUSE,Belgium,Flanders,Harnasstraat,10,Mechelen,2800,51.041085,4.4639274,3,121.0,None,14.0,FOR_SALE,,210000.0,,,D,,TO_RENOVATE,1936.0,,3.0,,,,INSTALLED,,,,,,,,,,,,True,,False,,None,
https://www.immoweb.be/en/classified/house/for-sale/wielsbeke/8710/20302375,20302375,HOUSE,HOUSE,Belgium,Flanders,Molenstraat,52,Wielsbeke,8710,50.90911939999999,3.3667263,5,199.0,None,17.0,FOR_SALE,,249000.0,,,F,,TO_RENOVATE,1954.0,,,,,,,,,,,,,,,,,,True,,False,None,None,
https://www.immoweb.be/en/classified/house/for-sale/staden/8840/20302607,20302607,HOUSE,HOUSE,Belgium,Flanders,Sint Jansstraat,35,Staden,8840,50.9728793,3.0165054,4,499.0,None,20.0,FOR_SALE,,299000.0,,False,C,,GOOD,1980.0,,,,,,INSTALLED,,,,,,,,,,,,True,,False,,None,
https://www.immoweb.be/en/classified/house/for-sale/zottegem/9620/20304132,20304132,HOUSE,HOUSE,Belgium,Flanders,Ten Bosse,157,ZOTTEGEM,9620,50.8437366,3.7884266,3,235.0,None,,FOR_SALE,,350000.0,,,C,,GOOD,1986.0,2.0,,,,16.0,INSTALLED,,,,,,,,30.0,True,,,,,False,,,
https://www.immoweb.be/en/classified/house/for-sale/vorselaar/2290/20304164,20304164,HOUSE,HOUSE,Belgium,Flanders,Vispluk,72,VORSELAAR,2290,51.2210514,4.7811012,4,282.0,None,,FOR_SALE,,1249000.0,,,A,,AS_NEW,1973.0,4.0,,,True,,INSTALLED,,,,,,,,,,,,True,,False,,None,
https://www.immoweb.be/en/classified/house/for-sale/gent/9000/20305043,20305043,HOUSE,HOUSE,Belgium,Flanders,Graaf van Vlaanderenplein,24,GENT,9000,51.0471218,3.732639,4,621.0,None,,FOR_SALE,,1550000.0,,,E,,TO_RESTORE,1852.0,3.0,4.0,,,,INSTALLED,,,,,,,,,,True,80.0,True,73.0,False,,None,
https://www.immoweb.be/en/classified/house/for-sale/mechelen/2800/20295310,20295310,HOUSE,HOUSE,Belgium,Flanders,Ravenbergstraat,24,MECHELEN,2800,51.0222213,4.4799787,5,179.0,None,,FOR_SALE,,425000.0,,,B,,GOOD,1976.0,,,,,12.0,INSTALLED,,,,,,,,35.0,True,,,True,33.0,True,,,
https://www.immoweb.be/en/classified/house/for-sale/didim/09256/10694863,10694863,HOUSE,HOUSE,Turkey,,xxxx,x,Didim,09256,37.37609399999999,27.264729,4,,None,11.0,FOR_SALE,,630000.0,,,None,,,,,,,True,,,,,,,,,,,,,,,,False,None,None,None
https://www.immoweb.be/en/classified/house/for-sale/akb%C3%BCk/09295/9726924,9726924,HOUSE,HOUSE,Turkey,,xxxxx,x,Akbük,09295,37.3862196,27.2852467,4,180.0,None,12.0,FOR_SALE,,355000.0,,,None,,,2022.0,,,,True,,INSTALLED,,,,,,,,,,,,True,,False,,None,
https://www.immoweb.be/en/classified/house/for-sale/akb%C3%BCk/09295/9726925,9726925,HOUSE,HOUSE,Turkey,,xxxxx,x,Akbük,09295,37.3862196,27.2852467,4,170.0,None,10.0,FOR_SALE,,270000.0,,False,None,,AS_NEW,2021.0,,,,,,INSTALLED,,,,,,,,,,,,True,,False,,None,
https://www.immoweb.be/en/classified/house/for-sale/vera-playa/04621/9426758,9426758,HOUSE,HOUSE,Spain,,PSA/VP,117,Vera-Playa,04621,37.2207119,-1.808119,3,165.0,None,12.0,FOR_SALE,,495000.0,,,None,,,,,,,True,,INSTALLED,,,,,,,,,,,,,,False,,None,None
https://www.immoweb.be/en/classified/house/for-sale/sorbas/04270/9426761,9426761,HOUSE,HOUSE,Spain,,PSA-SOR,090,Sorbas,04270,37.1001203,-2.1290671,3,,None,13.0,FOR_SALE,,380000.0,,True,None,,,2004.0,,,,,,,,,,,,,,,,,,,,False,None,None,
https://www.immoweb.be/en/classified/house/for-sale/mojacar/04638/9363114,9363114,HOUSE,HOUSE,Spain,,PSE-MOJ,109,Mojacar,04638,37.1220313,-1.8611011,3,,None,13.0,FOR_SALE,,310000.0,,False,None,,,,,,,True,,INSTALLED,,,,,,,,,,True,108.0,True,,False,,None,None
https://www.immoweb.be/en/classified/house/for-sale/kortrijk/8500/20307504,20307504,HOUSE,HOUSE,Belgium,Flanders,Klakkaardsplein,2,Kortrijk,8500,50.8231292,3.2734758,3,,None,1.0,FOR_SALE,,245000.0,,,B,,AS_NEW,2000.0,3.0,2.0,5.2,,,,,,,,,,,,,,,True,,False,None,None,
https://www.immoweb.be/en/classified/house/for-sale/hulste/8531/20307503,20307503,HOUSE,HOUSE,Belgium,Flanders,Distelbosstraat,9,Hulste,8531,50.876388,3.2926335,3,,None,1.0,FOR_SALE,,249000.0,,,F,,GOOD,1963.0,3.0,2.0,,,,,,,,,,,,,,,,True,,False,None,None,
https://www.immoweb.be/en/classified/house/for-sale/rocourt/4000/20307486,20307486,HOUSE,HOUSE,Belgium,Wallonie,Victor Croisier,89,Rocourt,4000,50.6669225,5.563787899999999,3,118.0,None,3.0,FOR_SALE,,309000.0,,False,C,,GOOD,,2.0,,,,,INSTALLED,,,,,,,,,,,,True,32.0,False,,None,
https://www.immoweb.be/en/classified/house/for-sale/sint-lievens-houtem/9520/20307485,20307485,HOUSE,HOUSE,Belgium,Flanders,Dries,30,Sint-Lievens-Houtem,9520,50.9210673,3.8724272,3,140.0,None,11.0,FOR_SALE,,195000.0,,False,F,,TO_RENOVATE,1958.0,,,,,,,,,,,,,,,,,,,,False,None,None,
https://www.immoweb.be/en/classified/house/for-sale/saint-georges-sur-meuse/4470/20307484,20307484,HOUSE,HOUSE,Belgium,Wallonie,Sentier des Blés,5,Saint-Georges-sur-Meuse,4470,50.6057716,5.3667638,2,138.0,None,,FOR_SALE,,210000.0,,False,F,,TO_RENOVATE,1874.0,4.0,,,False,,,,,,,,,,,,,,,,False,None,None,
https://www.immoweb.be/en/classified/house/for-sale/hombeek/2811/20307483,20307483,HOUSE,HOUSE,Belgium,Flanders,Zepstraat,67,Hombeek,2811,51.0090538,4.4242832,3,240.0,None,11.0,FOR_SALE,,399000.0,,,F,,TO_RENOVATE,1972.0,,,10.0,,11.0,INSTALLED,,,,,,,,41.0,True,True,400.0,,,False,,,
https://www.immoweb.be/en/classified/house/for-sale/seraing%20ougr%C3%A9e/4102/20307475,20307475,HOUSE,HOUSE,Belgium,Wallonie,Rue des Champs du Mont,72,Seraing Ougrée,4102,50.6027154,5.5373074,3,137.0,None,,FOR_SALE,,159000.0,,False,E,,GOOD,1947.0,3.0,,,False,8.0,SEMI_EQUIPPED,,,,,,,,14.0,True,True,277.0,True,,False,,,
https://www.immoweb.be/en/classified/house/for-sale/aalst/9300/20307473,20307473,HOUSE,HOUSE,Belgium,Flanders,,,Aalst,9300,,,3,190.0,None,,FOR_SALE,,229000.0,,,D,,TO_RENOVATE,1936.0,2.0,,,,20.0,,,,,,,,,17.0,True,,,True,,False,,,
https://www.immoweb.be/en/classified/house/for-sale/mechelen/2800/20307463,20307463,HOUSE,HOUSE,Belgium,Flanders,Lange Zandstraat,46,Mechelen,2800,51.066666,4.4625577,2,201.0,None,,FOR_SALE,,549000.0,,False,C,,GOOD,2001.0,2.0,,,False,10.0,HYPER_EQUIPPED,,,,,,,,38.0,True,True,278.0,True,29.0,False,,,
https://www.immoweb.be/en/classified/house/for-sale/willebroek/2830/20295471,20295471,HOUSE,HOUSE,Belgium,Flanders,Nieuw-Sloten,32,WILLEBROEK,2830,51.05132769999999,4.377813,4,195.0,None,,FOR_SALE,,635000.0,,,B,,GOOD,2007.0,3.0,2.0,,,21.0,SEMI_EQUIPPED,,,,,,,,60.0,True,,,True,38.0,False,,,
https://www.immoweb.be/en/classified/house/for-sale/vilvoorde/1800/20295067,20295067,HOUSE,HOUSE,Belgium,Flanders,Leliestraat,6,Vilvoorde,1800,50.9327675,4.447890399999999,4,213.0,None,,FOR_SALE,,649000.0,,False,B,,AS_NEW,2010.0,4.0,1.0,,False,,HYPER_EQUIPPED,,,,,,,,60.0,True,True,150.0,,,False,,,
https://www.immoweb.be/en/classified/house/for-sale/bassenge/4690/20288142,20288142,HOUSE,HOUSE,Belgium,Wallonie,Rue Royale,1,Bassenge,4690,50.7587191,5.6099834,3,148.0,None,,FOR_SALE,,299000.0,,False,C,,AS_NEW,1874.0,4.0,2.0,10.0,False,12.0,HYPER_EQUIPPED,,,,,,,,32.0,True,True,280.0,True,50.0,False,,,
https://www.immoweb.be/en/classified/house/for-sale/forest/1190/20290512,20290512,HOUSE,HOUSE,Belgium,Brussels,Rue Eugène Verrhegen,28,Forest,1190,50.8211091,4.3447263,4,210.0,None,15.0,FOR_SALE,,795000.0,,False,E,,GOOD,1906.0,2.0,3.0,6.0,False,15.0,HYPER_EQUIPPED,,,,,,,,,,True,28.0,,,False,,None,
https://www.immoweb.be/en/classified/house/for-sale/vise/4600/20301328,20301328,HOUSE,HOUSE,Belgium,Wallonie,Rue de Dalhem,19,Visé,4600,50.7315094,5.6969444,5,217.0,None,,FOR_SALE,,319000.0,,False,F,,TO_BE_DONE_UP,,4.0,1.0,14.0,False,12.0,INSTALLED,,,,,,,,33.0,True,True,478.0,True,32.0,False,,,
https://www.immoweb.be/en/classified/house/for-sale/herstal/4040/20300901,20300901,HOUSE,HOUSE,Belgium,Wallonie,Rue Petite Foxhalle,118,Herstal,4040,50.6626176,5.6191109,3,166.0,None,,FOR_SALE,,330000.0,,False,B,,GOOD,,3.0,2.0,7.0,False,11.0,INSTALLED,,,,,,,,17.0,True,True,58.0,True,23.0,False,,,
https://www.immoweb.be/en/classified/house/for-sale/awans/4340/20301057,20301057,HOUSE,HOUSE,Belgium,Wallonie,Rue de Bruxelles,114,Awans,4340,50.6759758,5.4803526,5,295.0,None,,FOR_SALE,,699000.0,,False,D,,AS_NEW,,4.0,1.0,10.0,False,17.0,INSTALLED,,,,,,,,38.0,True,True,324.0,True,40.0,False,,,
https://www.immoweb.be/en/classified/house/for-sale/saint-leger/6747/20283726,20283726,HOUSE,HOUSE,Belgium,Wallonie,Rue du Château,2,Saint-Léger,6747,49.6115521,5.6541312,4,190.0,None,,FOR_SALE,,180000.0,,,F,,TO_RENOVATE,1874.0,2.0,2.0,11.0,,10.0,NOT_INSTALLED,,,,,,,,16.0,True,True,150.0,,,False,,,
https://www.immoweb.be/en/classified/house/for-sale/aubange-halanzy/6792/20283751,20283751,HOUSE,HOUSE,Belgium,Wallonie,Rue du chalet,38,Aubange Halanzy,6792,49.5577659,5.7430217,3,120.0,None,,FOR_SALE,,270000.0,,,F,,GOOD,1960.0,3.0,2.0,,,8.0,,,,,,,,,24.0,True,True,40.0,True,40.0,False,,,
https://www.immoweb.be/en/classified/house/for-sale/aubange-halanzy/6792/20283724,20283724,HOUSE,HOUSE,Belgium,Wallonie,Rue Croix Rouget,18,Aubange Halanzy,6792,49.564969,5.7589481,3,189.0,None,,FOR_SALE,,435000.0,,,D,,GOOD,1953.0,4.0,2.0,10.0,,17.0,,,,,,,,,45.0,True,True,900.0,True,,False,,,
https://www.immoweb.be/en/classified/house/for-sale/grivegnee/4030/20294036,20294036,HOUSE,HOUSE,Belgium,Wallonie,Avenue de Péville,111,GRIVEGNEE,4030,50.6291685,5.593922399999999,2,120.0,None,,FOR_SALE,,248000.0,,,E,,GOOD,,3.0,2.0,,,8.0,INSTALLED,,,,,,,,31.0,True,True,155.0,True,12.0,True,,,
https://www.immoweb.be/en/classified/house/for-sale/oudenaarde/9700/20293543,20293543,HOUSE,HOUSE,Belgium,Flanders,Bergstraat,25,Oudenaarde,9700,50.8413102,3.6111569,3,86.0,None,14.0,FOR_SALE,,335000.0,,False,B,,GOOD,1875.0,2.0,2.0,6.0,,9.0,,,,,,,,,31.0,True,,,True,,False,,,
https://www.immoweb.be/en/classified/house/for-sale/oostduinkerke/8670/20306574,20306574,HOUSE,HOUSE,Belgium,Flanders,Groendyk,550,Oostduinkerke,8670,51.130055,2.7091786,3,62.0,None,10.0,FOR_SALE,,210000.0,,True,D,,GOOD,1982.0,,,,,,INSTALLED,,,,,,,,,,,,True,,False,,None,
https://www.immoweb.be/en/classified/house/for-sale/ronse/9600/20307256,20307256,HOUSE,HOUSE,Belgium,Flanders,Molendam,28,Ronse,9600,50.7414333,3.6014398,3,140.0,None,,FOR_SALE,,269000.0,,False,C,,AS_NEW,1930.0,2.0,2.0,5.0,False,,HYPER_EQUIPPED,,,,,,,,,,True,100.0,,,False,,None,
https://www.immoweb.be/en/classified/house/for-sale/lembeke/9971/20306619,20306619,HOUSE,HOUSE,Belgium,Flanders,Lembeke-Dorp,36,Lembeke,9971,51.194796,3.6313782,3,142.0,None,11.0,FOR_SALE,,350000.0,,False,,,JUST_RENOVATED,1890.0,,1.0,15.0,,16.0,INSTALLED,,,,,,,,33.0,True,True,72.0,True,9.0,False,,,
https://www.immoweb.be/en/classified/house/for-sale/lembeke/9971/20306599,20306599,HOUSE,HOUSE,Belgium,Flanders,Lembeke-Dorp,36,Lembeke,9971,51.194796,3.6313782,3,152.0,None,12.0,FOR_SALE,,360000.0,,False,,,JUST_RENOVATED,1890.0,,1.0,15.0,,,INSTALLED,,,,,,,,47.0,True,True,45.0,True,10.0,False,,,
https://www.immoweb.be/en/classified/house/for-sale/lembeke/9971/20306580,20306580,HOUSE,HOUSE,Belgium,Flanders,Lembeke-Dorp,36,Lembeke,9971,51.194796,3.6313782,3,176.0,None,12.0,FOR_SALE,,385000.0,,False,,,JUST_RENOVATED,1890.0,,1.0,11.0,,,INSTALLED,,,,,,,,58.0,True,True,59.0,True,7.0,False,,,
https://www.immoweb.be/en/classified/house/for-sale/ename/9700/20305230,20305230,HOUSE,HOUSE,Belgium,Flanders,Wolvenstraat,16,Ename,9700,50.8547454,3.6379436,2,140.0,None,14.0,FOR_SALE,,425000.0,,,D,,GOOD,1996.0,,,,,,INSTALLED,,,,,,,,,,,,True,,False,,None,
https://www.immoweb.be/en/classified/house/for-sale/berchem-2600/2600/20304305,20304305,HOUSE,HOUSE,Belgium,Flanders,Karel Coggestraat,51,Berchem (2600),2600,51.1928196,4.4347344,3,164.0,None,12.0,FOR_SALE,,475000.0,,False,C,,GOOD,,,,,,,INSTALLED,,,,,,,,,,True,30.0,True,15.0,False,,None,
https://www.immoweb.be/en/classified/house/for-sale/etterbeek/1040/20307699,20307699,HOUSE,HOUSE,Belgium,Brussels,Avenue Auguste Rodin,33,Etterbeek,1040,50.8271454,4.379673599999999,4,233.0,None,,FOR_SALE,,875000.0,,False,G,,TO_BE_DONE_UP,1929.0,3.0,3.0,,,25.0,HYPER_EQUIPPED,,,,,,,,15.0,True,,,True,21.0,False,,,
https://www.immoweb.be/en/classified/house/for-sale/ixelles/1050/20307701,20307701,HOUSE,HOUSE,Belgium,Brussels,Avenue Auguste Rodin,33,Ixelles,1050,50.8271454,4.379673599999999,4,233.0,None,,FOR_SALE,,875000.0,,False,G,,TO_BE_DONE_UP,1929.0,3.0,3.0,,,25.0,HYPER_EQUIPPED,,,,,,,,15.0,True,,,True,21.0,False,,,
https://www.immoweb.be/en/classified/house/for-sale/koksijde/8670/20305882,20305882,HOUSE,HOUSE,Belgium,Flanders,Zonstraat,44,Koksijde,8670,51.0992993,2.6270096,4,436.0,None,18.0,FOR_SALE,,875000.0,,,F,,TO_RENOVATE,1973.0,,,,,,INSTALLED,,,,,,,,,,,,,,False,,None,
https://www.immoweb.be/en/classified/house/for-sale/wilrijk/2610/20288711,20288711,HOUSE,HOUSE,Belgium,Flanders,Rederijkersstraat,91,WILRIJK,2610,51.181361,4.3762362,2,140.0,None,,FOR_SALE,,299000.0,,,D,,AS_NEW,1935.0,2.0,,5.0,,15.0,INSTALLED,,,,,,,,35.0,True,True,103.0,,,False,,,
https://www.immoweb.be/en/classified/house/for-sale/ronse/9600/20300392,20300392,HOUSE,HOUSE,Belgium,Flanders,Aatstraat,208,Ronse,9600,50.7390729,3.6154145,4,175.0,None,,FOR_SALE,,229000.0,,False,E,,GOOD,1967.0,3.0,2.0,13.5,False,,SEMI_EQUIPPED,,,,,,,,,,True,500.0,True,15.0,False,,None,
https://www.immoweb.be/en/classified/house/for-sale/heverlee/3001/20298946,20298946,HOUSE,HOUSE,Belgium,Flanders,Naamsesteenweg,331,HEVERLEE,3001,50.858825,4.6959802,2,96.0,None,,FOR_SALE,,269000.0,,,F,,TO_RENOVATE,1930.0,,,,,11.0,,,,,,,,,,,,,True,7.0,False,,None,
https://www.immoweb.be/en/classified/house/for-sale/huy/4500/20307454,20307454,HOUSE,HOUSE,Belgium,Wallonie,Rue sur meuse,31,Huy,4500,50.5218113,5.2361616,4,300.0,None,26.0,FOR_SALE,,274000.0,,,G,,GOOD,1900.0,2.0,2.0,6.0,False,5.0,SEMI_EQUIPPED,,,,,,,,21.0,True,,,True,,False,,,
https://www.immoweb.be/en/classified/house/for-sale/antwerpen%20%282000%29/2000/20307451,20307451,HOUSE,HOUSE,Belgium,Flanders,Pieter van Hobokenstraat,30,Antwerpen (2000),2000,51.2218386,4.412599,4,225.0,None,9.0,FOR_SALE,,419000.0,,,C,,,,,4.0,,,,INSTALLED,,,,,,,,,,,,,,False,,None,
https://www.immoweb.be/en/classified/house/for-sale/leuven/3000/20307449,20307449,HOUSE,HOUSE,Belgium,Flanders,Lei,14,Leuven,3000,50.88211219999999,4.6984942,3,149.0,None,,FOR_SALE,,695000.0,,True,C,,AS_NEW,1899.0,2.0,5.0,,,,HYPER_EQUIPPED,,,,,,,,,,,,True,,False,,None,
https://www.immoweb.be/en/classified/house/for-sale/heist-op-den-berg/2220/20307447,20307447,HOUSE,HOUSE,Belgium,Flanders,,,Heist-op-den-Berg,2220,,,3,213.0,None,19.0,FOR_SALE,,543000.0,,False,B,,GOOD,2002.0,4.0,3.0,,False,,INSTALLED,,,,,,,,,,,,True,,False,,None,
https://www.immoweb.be/en/classified/house/for-sale/li%C3%A8ge/4000/20307440,20307440,HOUSE,HOUSE,Belgium,Wallonie,Rue Jonfosse,103,Liège,4000,50.639253,5.5624137,3,86.0,None,11.0,FOR_SALE,,229000.0,,,D,,GOOD,,2.0,1.0,5.0,False,16.0,SEMI_EQUIPPED,,,,,,,,,,,,True,,False,,None,
https://www.immoweb.be/en/classified/house/for-sale/londerzeel/1840/20307432,20307432,HOUSE,HOUSE,Belgium,Flanders,Bouwdreef,19,Londerzeel,1840,51.01141399999999,4.2432569,5,244.0,None,,FOR_SALE,,659000.0,,False,A,,AS_NEW,2017.0,3.0,,,,,HYPER_EQUIPPED,,,,,,,,,,,,,,False,,None,
https://www.immoweb.be/en/classified/house/for-sale/sint-laureins/9980/20307429,20307429,HOUSE,HOUSE,Belgium,Flanders,Leemweg,75,Sint-Laureins,9980,51.2362855,3.5215848,3,185.0,None,25.0,FOR_SALE,,335000.0,,False,D,,AS_NEW,1937.0,,3.0,,False,,INSTALLED,,,,,,,,,,,,True,,True,,None,
https://www.immoweb.be/en/classified/house/for-sale/hasti%C3%A8re%20agimont/5544/20307428,20307428,HOUSE,HOUSE,Belgium,Wallonie,,,Hastière Agimont,5544,,,4,147.0,None,,FOR_SALE,,362548.0,,,A+,,AS_NEW,,4.0,,10.5,,,,,,,,,,,,,,,,,False,None,None,
https://www.immoweb.be/en/classified/house/for-sale/dilsen-stokkem/3650/20307425,20307425,HOUSE,HOUSE,Belgium,Flanders,,,Dilsen-Stokkem,3650,,,2,131.0,None,,FOR_SALE,,195000.0,,,F,,,1961.0,4.0,,,,,,,,,,,,,,,,,,,False,None,None,
https://www.immoweb.be/en/classified/house/for-sale/nevele/9850/20307422,20307422,HOUSE,HOUSE,Belgium,Flanders,Camille Van der Cruyssenstraat,28,Nevele,9850,51.0343504,3.5497251,3,340.0,None,15.0,FOR_SALE,,329000.0,,,F,,TO_RENOVATE,1951.0,,,,,,SEMI_EQUIPPED,,,,,,,,,,,,,,False,,None,
https://www.immoweb.be/en/classified/house/for-sale/li%C3%A8ge%20bressoux/4020/20307419,20307419,HOUSE,HOUSE,Belgium,Wallonie,,,Liège Bressoux,4020,,,3,97.0,None,,FOR_SALE,,185000.0,,,D,,,,2.0,,,,,,,,,,,,,,,,,True,,False,None,None,
https://www.immoweb.be/en/classified/house/for-sale/denderleeuw/9470/20307416,20307416,HOUSE,HOUSE,Belgium,Flanders,Steenweg,610,Denderleeuw,9470,50.877074,4.0609293,3,315.0,None,,FOR_SALE,,299000.0,,,F,,TO_BE_DONE_UP,,2.0,,19.5,False,,,,,,,,,,,,,,,,False,None,None,
https://www.immoweb.be/en/classified/house/for-sale/denderleeuw/9470/20307426,20307426,HOUSE,HOUSE,Belgium,Flanders,Steenweg,610,Denderleeuw,9470,50.877074,4.0609293,6,315.0,None,,FOR_SALE,,498000.0,,False,F,,TO_BE_DONE_UP,,2.0,,19.5,False,,,,,,,,,,,,,,True,,False,None,None,
https://www.immoweb.be/en/classified/house/for-sale/kortrijk/8500/20297899,20297899,HOUSE,HOUSE,Belgium,Flanders,Brugsesteenweg,211,Kortrijk,8500,50.8410994,3.2647507,3,150.0,None,,FOR_SALE,,289500.0,,,B,,GOOD,1930.0,2.0,3.0,,,,INSTALLED,,,,,,,,,,,,True,,False,,None,
https://www.immoweb.be/en/classified/house/for-sale/izegem/8870/20300174,20300174,HOUSE,HOUSE,Belgium,Flanders,Knobbaardstraat,38,Izegem,8870,50.9114017,3.2339251,3,177.0,None,14.0,FOR_SALE,,329000.0,,,C,,GOOD,1973.0,,,,,,INSTALLED,,,,,,,,,,,,True,,False,,None,
https://www.immoweb.be/en/classified/house/for-sale/ruddervoorde/8020/20297598,20297598,HOUSE,HOUSE,Belgium,Flanders,Sint-Elooisstraat,52,Ruddervoorde,8020,51.0972125,3.2101568,3,192.0,None,16.0,FOR_SALE,,380000.0,,,C,,GOOD,2001.0,,,,,15.0,,,,,,,,,,,,,True,137.0,False,,None,
https://www.immoweb.be/en/classified/house/for-sale/brakel/9660/20297037,20297037,HOUSE,HOUSE,Belgium,Flanders,Valkenbergstraat,101,Brakel,9660,50.81663820000001,3.7516134,3,203.0,None,14.0,FOR_SALE,,445000.0,,,B,,GOOD,2007.0,,2.0,15.0,,12.0,INSTALLED,,,,,,,,18.0,True,,,,,False,,,
https://www.immoweb.be/en/classified/house/for-sale/belsele/9111/20297219,20297219,HOUSE,HOUSE,Belgium,Flanders,Marktstraat,98,BELSELE,9111,51.1744885,4.081122300000001,5,360.0,None,,FOR_SALE,,675000.0,,,B,,JUST_RENOVATED,,3.0,,,,,HYPER_EQUIPPED,,,,,,,,78.0,True,True,1900.0,True,50.0,False,,,
https://www.immoweb.be/en/classified/house/for-sale/houthulst/8650/20302603,20302603,HOUSE,HOUSE,Belgium,Flanders,Koordendraaiershoek,15,Houthulst,8650,50.9767297,2.9388708,3,135.0,None,11.0,FOR_SALE,,349500.0,,False,B,,GOOD,2006.0,,,,,,INSTALLED,,,,,,,,,,,,True,,False,,None,
https://www.immoweb.be/en/classified/house/for-sale/wingene/8750/20301875,20301875,HOUSE,HOUSE,Belgium,Flanders,Hoogweg,30,Wingene,8750,51.0637881,3.2883749,3,249.0,None,18.0,FOR_SALE,,395000.0,,False,C,,GOOD,1968.0,,,,,19.0,INSTALLED,,,,,,,,24.0,True,,,True,,False,,,
https://www.immoweb.be/en/classified/house/for-sale/geraardsbergen/9500/20304121,20304121,HOUSE,HOUSE,Belgium,Flanders,Buizemontstraat,93,GERAARDSBERGEN,9500,50.7688923,3.8828322,3,252.0,None,,FOR_SALE,,400000.0,,,B,,GOOD,1969.0,2.0,,17.0,,8.0,INSTALLED,,,,,,,,31.0,True,,,,,False,,,
https://www.immoweb.be/en/classified/house/for-sale/geraardsbergen/9500/20304150,20304150,HOUSE,HOUSE,Belgium,Flanders,Lembosstraat,17,GERAARDSBERGEN,9500,50.7925774,3.9501224,3,286.0,None,,FOR_SALE,,720000.0,,,C,,GOOD,1981.0,4.0,,,,12.0,INSTALLED,,,,,,,,43.0,True,,,,,False,,,
https://www.immoweb.be/en/classified/house/for-sale/wavre/1300/20295336,20295336,HOUSE,HOUSE,Belgium,Wallonie,Chaussée du Tilleul,149,Wavre,1300,50.7246882,4.618847,3,150.0,None,,FOR_SALE,,220000.0,,,E,,TO_RENOVATE,,2.0,2.0,,,11.0,,,,,,,,,34.0,True,,,,,False,,,
https://www.immoweb.be/en/classified/house/for-sale/liege/4000/20295481,20295481,HOUSE,HOUSE,Belgium,Wallonie,Rue des Quatorze Verges,120A,LIÈGE,4000,50.6585186,5.5529058,2,186.0,None,,FOR_SALE,,379000.0,,,D,,GOOD,1995.0,3.0,2.0,,False,,INSTALLED,,,,,,,,38.0,True,True,115.0,True,18.0,False,,,
https://www.immoweb.be/en/classified/house/for-sale/seraing/4102/20299830,20299830,HOUSE,HOUSE,Belgium,Wallonie,Rue du Loup,7,Seraing,4102,50.59948,5.546326,2,60.0,None,,FOR_SALE,,89000.0,,False,E,,TO_RENOVATE,1850.0,2.0,1.0,,False,12.0,INSTALLED,,,,,,,,17.0,True,,,True,10.0,False,,,
https://www.immoweb.be/en/classified/house/for-sale/erpe-mere/9420/20301612,20301612,HOUSE,HOUSE,Belgium,Flanders,Gentsesteenweg,214,Erpe-Mere,9420,50.9445905,3.975697399999999,3,137.0,None,,FOR_SALE,,289000.0,,False,B,,GOOD,1935.0,2.0,3.0,5.0,False,,HYPER_EQUIPPED,,,,,,,,41.0,True,,,True,,False,,,
https://www.immoweb.be/en/classified/house/for-sale/harelbeke/8530/20300172,20300172,HOUSE,HOUSE,Belgium,Flanders,Spinnerijstraat,37,Harelbeke,8530,50.83024349999999,3.3046034,2,125.0,None,15.0,FOR_SALE,,299000.0,,,B,,GOOD,2009.0,,,,,,INSTALLED,,,,,,,,,,,,True,,False,,None,
https://www.immoweb.be/en/classified/house/for-sale/sleidinge/9940/20300911,20300911,HOUSE,HOUSE,Belgium,Flanders,Rerum Novarumlaan,6,SLEIDINGE,9940,51.12525189999999,3.6749921,3,115.0,None,,FOR_SALE,,325000.0,,,E,,TO_RENOVATE,1970.0,3.0,,,,15.0,SEMI_EQUIPPED,,,,,,,,28.0,True,,,,,True,,,
https://www.immoweb.be/en/classified/house/for-sale/borgerhout/2140/20301812,20301812,HOUSE,HOUSE,Belgium,Flanders,Stenenbrug,145,BORGERHOUT,2140,51.2113459,4.451576,2,161.0,None,,FOR_SALE,,359000.0,,,D,,GOOD,,2.0,,,,,INSTALLED,,,,,,,,,,True,78.0,True,20.0,False,,None,
https://www.immoweb.be/en/classified/house/for-sale/gent/9050/20302680,20302680,HOUSE,HOUSE,Belgium,Flanders,Priesterstraat,8,GENT,9050,51.0281035,3.7545592,4,162.0,None,,FOR_SALE,,399000.0,,,A,,GOOD,1948.0,,,,,,HYPER_EQUIPPED,,,,,,,,,,,,True,10.0,False,,None,
https://www.immoweb.be/en/classified/house/for-sale/denderleeuw/9470/20307412,20307412,HOUSE,HOUSE,Belgium,Flanders,Landuitstraat,221,Denderleeuw,9470,50.8770084,4.0611781,3,115.0,None,,FOR_SALE,,199000.0,,False,F,,TO_BE_DONE_UP,,2.0,,10.0,False,,,,,,,,,,,,,,True,,False,None,None,
https://www.immoweb.be/en/classified/house/for-sale/schriek/2223/20307408,20307408,HOUSE,HOUSE,Belgium,Flanders,,,Schriek,2223,,,3,213.0,None,19.0,FOR_SALE,,543000.0,,False,B,,GOOD,2002.0,4.0,3.0,,False,,INSTALLED,,,,,,,,,,,,True,,False,,None,
https://www.immoweb.be/en/classified/house/for-sale/wavre/1301/20307385,20307385,HOUSE,HOUSE,Belgium,Wallonie,,,Wavre,1301,,,4,205.0,None,,FOR_SALE,,795000.0,,False,B,,AS_NEW,2017.0,3.0,2.0,,True,9.0,HYPER_EQUIPPED,,,,,,,,41.0,True,True,760.0,True,,False,,,
https://www.immoweb.be/en/classified/house/for-sale/westerlo/2260/20307372,20307372,HOUSE,HOUSE,Belgium,Flanders,,,Westerlo,2260,,,3,202.0,None,17.0,FOR_SALE,,269000.0,,False,F,,TO_RENOVATE,1960.0,4.0,3.0,,False,,SEMI_EQUIPPED,,,,,,,,,,,,True,,False,,None,
https://www.immoweb.be/en/classified/house/for-sale/gent/9041/20307371,20307371,HOUSE,HOUSE,Belgium,Flanders,Molzelebilk,1,Gent,9041,51.1033616,3.7723816,4,215.0,None,1.0,FOR_SALE,,727000.0,,,A+,,GOOD,2024.0,3.0,,8.0,,10.0,,,,,,,,,42.0,True,,,True,15.0,False,,,
https://www.immoweb.be/en/classified/house/for-sale/deinze/9800/20306765,20306765,HOUSE,HOUSE,Belgium,Flanders,Aaltersesteenweg,38,Deinze,9800,50.9915892,3.5045418,2,102.0,None,,FOR_SALE,,349000.0,,,B,,AS_NEW,,2.0,3.0,2.0,False,14.0,HYPER_EQUIPPED,,,,,,,,34.0,True,True,170.0,True,20.0,False,,,
https://www.immoweb.be/en/classified/house/for-sale/oostende/8400/20307364,20307364,HOUSE,HOUSE,Belgium,Flanders,Spaarzaamheidstraat,89,Oostende,8400,51.2174444,2.8997361,3,133.0,None,1.0,FOR_SALE,,275000.0,,,C,,,,4.0,,,,,,,,,,,,,,,,,True,,False,None,None,
https://www.immoweb.be/en/classified/house/for-sale/mouscron/7700/20307359,20307359,HOUSE,HOUSE,Belgium,Wallonie,,,MOUSCRON,7700,,,5,221.0,None,,FOR_SALE,,365000.0,,,B,,,,3.0,,,,,HYPER_EQUIPPED,,,,,,,,,,True,145.0,,,False,,None,
https://www.immoweb.be/en/classified/house/for-sale/lede/9340/20307358,20307358,HOUSE,HOUSE,Belgium,Flanders,Steenstraat,73,LEDE,9340,50.963068,4.003111,2,94.0,None,,FOR_SALE,,165000.0,,,F,,TO_RENOVATE,1899.0,4.0,,,,,SEMI_EQUIPPED,,,,,,,,,,,,,,False,,None,
https://www.immoweb.be/en/classified/house/for-sale/roeselare/8800/20307357,20307357,HOUSE,HOUSE,Belgium,Flanders,Dikmuidsesteenweg,227,Roeselare,8800,50.9473744,3.1113296,4,149.0,None,5.0,FOR_SALE,,210000.0,,,F,,GOOD,,2.0,2.0,,,27.0,,,,,,,,,22.0,True,,,True,,False,,,
https://www.immoweb.be/en/classified/house/for-sale/antwerpen/2018/20307351,20307351,HOUSE,HOUSE,Belgium,Flanders,Haantjeslei,55,Antwerpen,2018,51.2026884,4.3998848,3,119.0,None,,FOR_SALE,,485000.0,,,None,,,2023.0,3.0,2.0,,,,USA_HYPER_EQUIPPED,,,,,,,,,,,,True,28.0,False,,None,
https://www.immoweb.be/en/classified/house/for-sale/pont-a-celles/6230/20301161,20301161,HOUSE,HOUSE,Belgium,Wallonie,Rue Pestelin,45,Pont-à-Celles,6230,50.51505419999999,4.4013012,3,240.0,None,18.0,FOR_SALE,,400000.0,,False,D,,GOOD,,,1.0,,False,18.0,,,,,,,,,18.0,True,,,True,144.0,True,,,
https://www.immoweb.be/en/classified/house/for-sale/saint-leger/6747/20283697,20283697,HOUSE,HOUSE,Belgium,Wallonie,Rue de France,4,Saint-Léger,6747,49.6124012,5.6534363,3,150.0,None,,FOR_SALE,,99000.0,,,F,,TO_RENOVATE,1850.0,3.0,1.0,,,,NOT_INSTALLED,,,,,,,,26.0,True,True,90.0,,,False,,,
https://www.immoweb.be/en/classified/house/for-sale/virton/6760/20283700,20283700,HOUSE,HOUSE,Belgium,Wallonie,Rue Albert 1er,33,Virton,6760,49.5694994,5.533473799999999,3,120.0,None,,FOR_SALE,,135000.0,,,G,,TO_RENOVATE,1850.0,2.0,2.0,,,7.0,NOT_INSTALLED,,,,,,,,16.0,True,,,True,10.0,False,,,
https://www.immoweb.be/en/classified/house/for-sale/chiny-les-bulles/6811/20283717,20283717,HOUSE,HOUSE,Belgium,Wallonie,Rue du Faubourg,51,Chiny Les Bulles,6811,49.7077481,5.422801799999999,3,140.0,None,,FOR_SALE,,195000.0,,,E,,TO_RENOVATE,1950.0,3.0,2.0,,,10.0,NOT_INSTALLED,,,,,,,,18.0,True,True,400.0,,,False,,,
https://www.immoweb.be/en/classified/house/for-sale/aubange-rachecourt/6792/20283740,20283740,HOUSE,HOUSE,Belgium,Wallonie,Rue de la Fosse,180,Aubange Rachecourt,6792,49.5949039,5.7233279,4,170.0,None,,FOR_SALE,,290000.0,,,G,,TO_RENOVATE,1952.0,4.0,1.0,,,16.0,NOT_INSTALLED,,,,,,,,16.0,True,True,1100.0,,,False,,,
https://www.immoweb.be/en/classified/house/for-sale/duffel/2570/20284739,20284739,HOUSE,HOUSE,Belgium,Flanders,Lentestraat,7,DUFFEL,2570,51.0929221,4.514097599999999,3,130.0,None,,FOR_SALE,,292000.0,,,E,,TO_RENOVATE,1951.0,,2.0,,,19.0,SEMI_EQUIPPED,,,,,,,,23.0,True,True,140.0,True,14.0,False,,,
https://www.immoweb.be/en/classified/house/for-sale/virton-ethe/6760/20283742,20283742,HOUSE,HOUSE,Belgium,Wallonie,rue des tilleuls,3,Virton Ethe,6760,49.5813411,5.5674855,7,330.0,None,,FOR_SALE,,555000.0,,,C,,GOOD,2007.0,4.0,2.0,,,31.0,USA_INSTALLED,,,,,,,,,,True,700.0,True,20.0,False,,None,
https://www.immoweb.be/en/classified/house/for-sale/rosee/5620/20305855,20305855,HOUSE,HOUSE,Belgium,Wallonie,Rue Defoy,180,Rosée,5620,50.2314665,4.6890542,4,115.0,None,,FOR_SALE,,160000.0,,,E,,GOOD,,2.0,2.0,,,15.0,INSTALLED,,,,,,,,,,True,120.0,,,False,,None,
https://www.immoweb.be/en/classified/house/for-sale/sint-gillis-waas/9170/20306112,20306112,HOUSE,HOUSE,Belgium,Flanders,Heidestraat,34,SINT-GILLIS-WAAS,9170,51.2533816,4.0864007,2,111.0,None,,FOR_SALE,,268000.0,,,E,,GOOD,,2.0,,,,,INSTALLED,,,,,,,,,,,,True,25.0,False,,None,
https://www.immoweb.be/en/classified/house/for-sale/tollembeek/1570/20307706,20307706,HOUSE,HOUSE,Belgium,Flanders,Muylebeekstraat,52,TOLLEMBEEK,1570,50.7373529,3.9888952,3,256.0,None,,FOR_SALE,,269000.0,,,F,,TO_RENOVATE,1930.0,4.0,3.0,17.0,,,SEMI_EQUIPPED,,,,,,,,60.0,True,True,230.0,True,32.0,False,,,
https://www.immoweb.be/en/classified/house/for-sale/niel/2845/20306656,20306656,HOUSE,HOUSE,Belgium,Flanders,Antwerpsestraat,1,Niel,2845,51.1064624,4.3297659,4,147.0,None,1.0,FOR_SALE,,305000.0,,,B,,AS_NEW,,2.0,2.0,6.0,,15.0,,,,,,,,,26.0,True,,,,,False,,,
https://www.immoweb.be/en/classified/house/for-sale/nevele/9850/20307422,20307422,HOUSE,HOUSE,Belgium,Flanders,Camille Van der Cruyssenstraat,28,Nevele,9850,51.0343504,3.5497251,3,340.0,None,15.0,FOR_SALE,,329000.0,,,F,,TO_RENOVATE,1951.0,,,,,,SEMI_EQUIPPED,,,,,,,,,,,,,,False,,None,
https://www.immoweb.be/en/classified/house/for-sale/villers-le-bouillet/4530/20307316,20307316,HOUSE,HOUSE,Belgium,Wallonie,Rue Thier du Moulin,14,VILLERS-LE-BOUILLET,4530,50.5655841,5.2812724,4,270.0,None,,FOR_SALE,,398000.0,,,C,,GOOD,,3.0,,16.0,,,INSTALLED,,,,,,,,32.0,True,True,330.0,True,60.0,False,,,
https://www.immoweb.be/en/classified/house/for-sale/wondelgem/9032/20303743,20303743,HOUSE,HOUSE,Belgium,Flanders,Westergemstraat,84,Wondelgem,9032,51.0789935,3.7116749,3,100.0,None,5.0,FOR_SALE,,399000.0,,,A,,GOOD,1918.0,2.0,,,,,,,,,,,,,,,,,,,False,None,None,
https://www.immoweb.be/en/classified/house/for-sale/brugge/8000/20306579,20306579,HOUSE,HOUSE,Belgium,Flanders,Koningin Elisabethlaan,30,Brugge,8000,51.2158153,3.2173937,4,280.0,None,16.0,FOR_SALE,,435000.0,,,B,,TO_RENOVATE,1900.0,,,6.0,,,,,,,,,,,,,,,True,,False,None,None,
https://www.immoweb.be/en/classified/house/for-sale/zele/9240/20305788,20305788,HOUSE,HOUSE,Belgium,Flanders,Heikant,259,Zele,9240,51.0663107,3.9900647,4,185.0,None,,FOR_SALE,,580000.0,,False,C,,GOOD,2003.0,4.0,3.0,7.0,False,,INSTALLED,,,,,,,,,,True,800.0,True,,False,,None,
https://www.immoweb.be/en/classified/house/for-sale/oudenaarde/9700/20287732,20287732,HOUSE,HOUSE,Belgium,Flanders,Nederenamestraat,195,Oudenaarde,9700,50.8656461,3.645737899999999,3,165.0,None,16.0,FOR_SALE,,398000.0,,False,C,,GOOD,1978.0,2.0,4.0,10.0,,15.0,,,,,,,,,35.0,True,,,True,,False,,,
https://www.immoweb.be/en/classified/house/for-sale/ruddervoorde/8020/20296104,20296104,HOUSE,HOUSE,Belgium,Flanders,Veldegemsestraat,46,Ruddervoorde,8020,51.100579,3.1812232,2,112.0,None,8.0,FOR_SALE,,155000.0,,,F,,TO_RENOVATE,1874.0,,,,,,,,,,,,,,,,,,True,,False,None,None,
https://www.immoweb.be/en/classified/house/for-sale/antwerpen/2060/20299576,20299576,HOUSE,HOUSE,Belgium,Flanders,Familiestraat,3,ANTWERPEN,2060,51.226476,4.4332798,3,144.0,None,,FOR_SALE,,249500.0,,,E,,TO_BE_DONE_UP,,2.0,,5.0,,,INSTALLED,,,,,,,,40.0,True,True,6.0,True,,False,,,
https://www.immoweb.be/en/classified/house/for-sale/deerlijk/8540/20299772,20299772,HOUSE,HOUSE,Belgium,Flanders,Engelstraat,22,Deerlijk,8540,50.8491077,3.3587686,4,190.0,None,,FOR_SALE,,375000.0,,,C,,JUST_RENOVATED,1960.0,3.0,3.0,,,,HYPER_EQUIPPED,,,,,,,,,,,,True,,False,,None,
https://www.immoweb.be/en/classified/house/for-sale/wetteren/9230/20299618,20299618,HOUSE,HOUSE,Belgium,Flanders,Kortenbosstraat,60,Wetteren,9230,50.9807962,3.8889502,4,245.0,None,,FOR_SALE,,447500.0,,False,D,,GOOD,1919.0,4.0,3.0,10.0,False,,HYPER_EQUIPPED,,,,,,,,,,True,124.0,True,46.0,False,,None,
https://www.immoweb.be/en/classified/house/for-sale/wetteren/9230/20296094,20296094,HOUSE,HOUSE,Belgium,Flanders,Kortenbosstraat,60,Wetteren,9230,50.9807962,3.8889502,4,245.0,None,,FOR_SALE,,447500.0,,False,D,,GOOD,1919.0,4.0,3.0,10.0,False,,HYPER_EQUIPPED,,,,,,,,,,True,124.0,True,46.0,False,,None,
https://www.immoweb.be/en/classified/house/for-sale/menen/8930/20297445,20297445,HOUSE,HOUSE,Belgium,Flanders,Bruggestraat,40,Menen,8930,50.79743819999999,3.1218446,3,570.0,None,,FOR_SALE,,495000.0,,,E,,TO_BE_DONE_UP,1969.0,2.0,3.0,,,,SEMI_EQUIPPED,,,,,,,,,,,,,,False,,None,
https://www.immoweb.be/en/classified/house/for-sale/zemst/1982/20307336,20307336,HOUSE,HOUSE,Belgium,Flanders,Lange Ravestraat,39,ZEMST,1982,50.9666163,4.5107789,5,415.0,None,,FOR_SALE,,875000.0,,,B,,GOOD,1997.0,4.0,,25.0,,,INSTALLED,,,,,,,,55.0,True,True,1202.0,,,False,,,
https://www.immoweb.be/en/classified/house/for-sale/turnhout/2300/20307324,20307324,HOUSE,HOUSE,Belgium,Flanders,Koningin Astridlaan,62,TURNHOUT,2300,51.32318480000001,4.9223475,3,259.0,None,,FOR_SALE,,420000.0,,,F,,,1965.0,4.0,,,,14.0,SEMI_EQUIPPED,,,,,,,,35.0,True,True,143.0,,,False,,,
https://www.immoweb.be/en/classified/house/for-sale/villers-le-bouillet/4530/20307316,20307316,HOUSE,HOUSE,Belgium,Wallonie,Rue Thier du Moulin,14,VILLERS-LE-BOUILLET,4530,50.5655841,5.2812724,4,270.0,None,,FOR_SALE,,398000.0,,,C,,GOOD,,3.0,,16.0,,,INSTALLED,,,,,,,,32.0,True,True,330.0,True,60.0,False,,,
https://www.immoweb.be/en/classified/house/for-sale/koekelberg/1081/20307313,20307313,HOUSE,HOUSE,Belgium,Brussels,,,Koekelberg,1081,,,6,199.0,None,,FOR_SALE,,365000.0,,,,,TO_BE_DONE_UP,,2.0,3.0,,False,19.0,INSTALLED,,,,,,,,24.0,True,,,True,56.0,False,,,
https://www.immoweb.be/en/classified/house/for-sale/stekene/9190/20307311,20307311,HOUSE,HOUSE,Belgium,Flanders,Pannenhuisstraat,51,STEKENE,9190,51.1878485,3.993719,3,,None,,FOR_SALE,,529000.0,,,D,,,1974.0,4.0,,10.0,,19.0,,,,,,,,,,,,,,,False,,None,
https://www.immoweb.be/en/classified/house/for-sale/stekene/9190/20307310,20307310,HOUSE,HOUSE,Belgium,Flanders,Polken,10,STEKENE,9190,51.1891914,4.0141276,2,143.0,None,,FOR_SALE,,319000.0,,,F,,TO_RENOVATE,1979.0,4.0,,,,13.0,,,,,,,,,,,,,,,False,,None,
https://www.immoweb.be/en/classified/house/for-sale/diepenbeek/3590/20307303,20307303,HOUSE,HOUSE,Belgium,Flanders,Sint-Servatiusstraat,11,DIEPENBEEK,3590,50.9219003,5.443238099999999,4,203.0,None,,FOR_SALE,,449000.0,,,B,,GOOD,1988.0,4.0,,,,,INSTALLED,,,,,,,,,,,,,,False,,None,
https://www.immoweb.be/en/classified/house/for-sale/oostende/8400/20025521,20025521,HOUSE,HOUSE,Belgium,Flanders,,,Oostende,8400,,,4,220.0,None,,FOR_SALE,,270000.0,308000.0,,C,,,,,4.0,,,,NOT_INSTALLED,,,,,,,,,,,,True,,False,,None,
https://www.immoweb.be/en/classified/house/for-sale/opwijk/1745/20307294,20307294,HOUSE,HOUSE,Belgium,Flanders,Graanakker,20,OPWIJK,1745,50.9742767,4.181526799999999,3,153.0,None,,FOR_SALE,,495000.0,,,A,,GOOD,2009.0,,,,,13.0,INSTALLED,,,,,,,,37.0,True,,,True,,False,,,
https://www.immoweb.be/en/classified/house/for-sale/neuville/5600/20083178,20083178,HOUSE,HOUSE,Belgium,Wallonie,Quartier Saint-Hubert,127,Neuville,5600,50.175169,4.5254133,3,131.0,None,,FOR_SALE,,135000.0,,False,E,,TO_BE_DONE_UP,,2.0,2.0,,False,25.0,NOT_INSTALLED,,,,,,,,17.0,True,True,110.0,,,False,,,
https://www.immoweb.be/en/classified/house/for-sale/chatelineau/6200/20085026,20085026,HOUSE,HOUSE,Belgium,Wallonie,Cour des Haies,27,CHATELINEAU,6200,50.4183372,4.5083623,3,110.0,None,,FOR_SALE,,149000.0,,,D,,TO_BE_DONE_UP,,3.0,,7.0,,,SEMI_EQUIPPED,,,,,,,,32.0,True,True,105.0,,,False,,,
https://www.immoweb.be/en/classified/house/for-sale/nivelles/1400/20103840,20103840,HOUSE,HOUSE,Belgium,Wallonie,Faubourg de Namur,80,NIVELLES,1400,50.5991355,4.3379808,3,125.0,None,,FOR_SALE,,215000.0,,,None,,,,2.0,3.0,,,,,,,,,,,,,,,,True,15.0,False,None,None,
https://www.immoweb.be/en/classified/house/for-sale/gosselies/6041/11466888,11466888,HOUSE,HOUSE,Belgium,Wallonie,Rue Astrid,53,GOSSELIES,6041,50.4671335,4.434692399999999,2,100.0,None,,FOR_SALE,,79000.0,,,G,,TO_RENOVATE,,2.0,2.0,,,,SEMI_EQUIPPED,,,,,,,,24.0,True,,,,,False,,,
https://www.immoweb.be/en/classified/house/for-sale/nivelles/1400/20270141,20270141,HOUSE,HOUSE,Belgium,Wallonie,Rue du Coq,31,NIVELLES,1400,50.59580949999999,4.3228814,2,93.0,None,,FOR_SALE,,195000.0,,,E,,JUST_RENOVATED,1800.0,2.0,,,,,SEMI_EQUIPPED,,,,,,,,,,,,True,10.0,False,,None,
https://www.immoweb.be/en/classified/house/for-sale/marcinelle/6001/20269618,20269618,HOUSE,HOUSE,Belgium,Wallonie,Allée E,24,MARCINELLE,6001,50.383973,4.436433399999999,3,95.0,None,,FOR_SALE,,195000.0,,,None,,JUST_RENOVATED,1964.0,2.0,,7.0,,,INSTALLED,,,,,,,,35.0,True,,,True,60.0,False,,,
https://www.immoweb.be/en/classified/house/for-sale/gosselies/6041/20101957,20101957,HOUSE,HOUSE,Belgium,Wallonie,Rue des Ateliers Lefort,27,GOSSELIES,6041,50.4629347,4.432536799999999,2,120.0,None,,FOR_SALE,,170000.0,,,D,,JUST_RENOVATED,,2.0,2.0,,,,INSTALLED,,,,,,,,,,True,130.0,True,,False,,None,
https://www.immoweb.be/en/classified/house/for-sale/gosselies/6041/20049849,20049849,HOUSE,HOUSE,Belgium,Wallonie,Rue Tout Vent,54,GOSSELIES,6041,50.4732418,4.4275518,3,115.0,None,,FOR_SALE,,160000.0,,,E,,JUST_RENOVATED,,3.0,2.0,,,,SEMI_EQUIPPED,,,,,,,,,,True,130.0,True,15.0,False,,None,
https://www.immoweb.be/en/classified/house/for-sale/arquennes/7181/20131785,20131785,HOUSE,HOUSE,Belgium,Wallonie,Rue du Tir à L'arc,21,ARQUENNES,7181,50.5687258,4.2814328,3,150.0,None,,FOR_SALE,,439000.0,,,B,,,,,2.0,,,,,,,,,,,,30.0,True,True,300.0,True,10.0,False,None,,
https://www.immoweb.be/en/classified/house/for-sale/houthulst/8650/20302601,20302601,HOUSE,HOUSE,Belgium,Flanders,Jonkershovestraat,268,Houthulst,8650,50.9693682,2.9133753,4,182.0,None,18.0,FOR_SALE,,229000.0,,True,F,,TO_RENOVATE,,,,,,,SEMI_EQUIPPED,,,,,,,,,,,,True,,False,,None,
https://www.immoweb.be/en/classified/house/for-sale/waregem/8790/20304661,20304661,HOUSE,HOUSE,Belgium,Flanders,Wollestraat,22,Waregem,8790,50.89409329999999,3.4358284,3,187.0,None,14.0,FOR_SALE,,239000.0,,,D,,TO_BE_DONE_UP,1970.0,,,,,,INSTALLED,,,,,,,,,,,,True,,False,,None,
https://www.immoweb.be/en/classified/house/for-sale/ans-alleur/4432/20301891,20301891,HOUSE,HOUSE,Belgium,Wallonie,Rue du Mayeur,68,Ans Alleur,4432,50.66885019999999,5.5110167,3,165.0,None,,FOR_SALE,,289000.0,,False,E,,TO_BE_DONE_UP,1979.0,3.0,,7.0,False,11.0,SEMI_EQUIPPED,,,,,,,,25.0,True,True,147.0,True,9.0,False,,,
https://www.immoweb.be/en/classified/house/for-sale/gent/9050/20303527,20303527,HOUSE,HOUSE,Belgium,Flanders,Scheldekaai,23,Gent,9050,51.0419999,3.7427739,2,120.0,None,,FOR_SALE,,449000.0,,False,C,,GOOD,,2.0,3.0,6.0,False,,INSTALLED,,,,,,,,,,True,23.0,True,30.0,False,,None,
https://www.immoweb.be/en/classified/house/for-sale/zwevegem/8550/20305210,20305210,HOUSE,HOUSE,Belgium,Flanders,Kortrijkstraat,190,Zwevegem,8550,50.8152984,3.3163015,2,289.0,None,,FOR_SALE,,629000.0,,False,D,,JUST_RENOVATED,1968.0,4.0,,,False,32.0,HYPER_EQUIPPED,,,,,,,,65.0,True,,,True,,False,,,
https://www.immoweb.be/en/classified/house/for-sale/antwerpen/2018/20305474,20305474,HOUSE,HOUSE,Belgium,Flanders,Broederminstraat,12,ANTWERPEN,2018,51.2030839,4.3927399,4,192.0,None,,FOR_SALE,,665000.0,,,B,,GOOD,,2.0,2.0,,,14.0,INSTALLED,,,,,,,,,,,,True,23.0,False,,None,
https://www.immoweb.be/en/classified/house/for-sale/wetteren/9230/20296352,20296352,HOUSE,HOUSE,Belgium,Flanders,Dendermondesteenweg,45,Wetteren,9230,51.0112616,3.9092939,3,150.0,None,,FOR_SALE,,249000.0,,False,D,,TO_RENOVATE,1960.0,3.0,1.0,5.8,False,19.0,INSTALLED,,,,,,,,30.0,True,,,,,False,,,
https://www.immoweb.be/en/classified/house/for-sale/eke/9810/20294241,20294241,HOUSE,HOUSE,Belgium,Flanders,Noël Schoorensstraat,19,Eke,9810,50.9560115,3.643142,3,215.0,None,16.0,FOR_SALE,,419000.0,,False,B,,GOOD,1968.0,2.0,4.0,5.0,,19.0,,,,,,,,,23.0,True,,,True,3.0,False,,,
https://www.immoweb.be/en/classified/house/for-sale/zwalm/9630/20290913,20290913,HOUSE,HOUSE,Belgium,Flanders,Heufkensstraat,61,Zwalm,9630,50.8702619,3.7070415,2,145.0,None,16.0,FOR_SALE,,452000.0,,False,E,,GOOD,1994.0,4.0,2.0,12.0,,11.0,,,,,,,,,46.0,True,,,True,,False,,,
https://www.immoweb.be/en/classified/house/for-sale/gent/9000/20289915,20289915,HOUSE,HOUSE,Belgium,Flanders,Koolmeesstraat,21,Gent,9000,51.0283625,3.7261886,5,200.0,None,,FOR_SALE,,1100000.0,,True,A,,AS_NEW,1963.0,2.0,3.0,9.01,False,13.0,HYPER_EQUIPPED,,,,,,,,34.0,True,True,41.0,True,13.0,False,,,
https://www.immoweb.be/en/classified/house/for-sale/couvin/5660/20298891,20298891,HOUSE,HOUSE,Belgium,Wallonie,Rue Grande,45,Couvin,5660,49.9652205,4.5315736,2,163.0,None,,FOR_SALE,,219000.0,,,E,,GOOD,1930.0,3.0,2.0,22.0,False,15.0,SEMI_EQUIPPED,,,,,,,,30.0,True,True,2493.0,True,12.0,False,,,
https://www.immoweb.be/en/classified/house/for-sale/nazareth/9810/20301030,20301030,HOUSE,HOUSE,Belgium,Flanders,Zuiderbiesten,22,Nazareth,9810,50.9557022,3.629817,3,356.0,None,,FOR_SALE,,535000.0,,False,C,,GOOD,2000.0,4.0,,,,18.0,HYPER_EQUIPPED,,,,,,,,44.0,True,,,True,,False,,,
https://www.immoweb.be/en/classified/house/for-sale/schelle/2627/20302013,20302013,HOUSE,HOUSE,Belgium,Flanders,Sparrenlaan,12,SCHELLE,2627,51.1167307,4.3273478,4,209.0,None,,FOR_SALE,,625000.0,,,B,,GOOD,1994.0,4.0,,,,16.0,INSTALLED,,,,,,,,,,,,True,,False,,None,
https://www.immoweb.be/en/classified/house/for-sale/deinze/9800/20300017,20300017,HOUSE,HOUSE,Belgium,Flanders,Bredestraat,44,Deinze,9800,50.9578672,3.5243694,4,190.0,None,16.0,FOR_SALE,,728000.0,,False,B,,GOOD,,4.0,,,,,,,,,,,,,,,,,True,,False,None,None,
https://www.immoweb.be/en/classified/house/for-sale/saint-leger/6747/20283753,20283753,HOUSE,HOUSE,Belgium,Wallonie,Rue du Cassis,14,Saint-Léger,6747,49.61002209999999,5.6593797,3,120.0,None,,FOR_SALE,,155000.0,,,G,,TO_RENOVATE,1850.0,3.0,2.0,11.0,,12.0,NOT_INSTALLED,,,,,,,,27.0,True,True,100.0,,,False,,,
https://www.immoweb.be/en/classified/house/for-sale/dendermonde/9200/20293510,20293510,HOUSE,HOUSE,Belgium,Flanders,Lindanusstraat,65,Dendermonde,9200,51.0279221,4.104079,5,247.0,None,14.0,FOR_SALE,,415000.0,,,C,,GOOD,,,,,,13.0,INSTALLED,,,,,,,,48.0,True,True,97.0,True,5.0,False,,,
https://www.immoweb.be/en/classified/house/for-sale/knokke-heist/8300/20293477,20293477,HOUSE,HOUSE,Belgium,Flanders,Niki De Saint Phallestraat,8,Knokke-Heist,8300,51.337082,3.2799732,6,404.0,None,19.0,FOR_SALE,,4875000.0,,False,A,,GOOD,2020.0,4.0,2.0,,,,HYPER_EQUIPPED,,,,,,,,,,,,True,,False,,None,
https://www.immoweb.be/en/classified/house/for-sale/fontaine-l%27%C3%89v%C3%AAque/6140/11210215,11210215,HOUSE,HOUSE,Belgium,Wallonie,Rue Cressonnière,35,Fontaine-l'Évêque,6140,50.411494,4.3136122,2,125.0,None,,FOR_SALE,,142000.0,,,D,,TO_RESTORE,,2.0,2.0,,,,SEMI_EQUIPPED,,,,,,,,28.0,True,True,125.0,True,,False,,,
https://www.immoweb.be/en/classified/house/for-sale/linter/3350/20307278,20307278,HOUSE,HOUSE,Belgium,Flanders,Heidestraat,87,Linter,3350,50.85421729999999,5.0208718,4,167.0,None,,FOR_SALE,,159000.0,,False,F,,,,4.0,,10.0,False,11.0,,,,,,,,,,,True,634.0,,,False,,None,
